city;lat;lng;country;iso2;iso3
Malishevë;42.4822;20.7458;Kosovo;EU;XKS
Prizren;42.2139;20.7397;Kosovo;EU;XKS
Zubin Potok;42.9144;20.6897;Kosovo;EU;XKS
Kamenicë;42.5781;21.5803;Kosovo;EU;XKS
Viti;42.3214;21.3583;Kosovo;EU;XKS
Shtërpcë;42.2394;21.0272;Kosovo;EU;XKS
Shtime;42.4331;21.0397;Kosovo;EU;XKS
Vushtrri;42.8231;20.9675;Kosovo;EU;XKS
Dragash;42.0265;20.6533;Kosovo;EU;XKS
Podujevë;42.9111;21.1899;Kosovo;EU;XKS
Fushë Kosovë;42.6639;21.0961;Kosovo;EU;XKS
Kaçanik;42.2319;21.2594;Kosovo;EU;XKS
Klinë;42.6217;20.5778;Kosovo;EU;XKS
Leposaviq;43.1039;20.8028;Kosovo;EU;XKS
Pejë;42.66;20.2922;Kosovo;EU;XKS
Rahovec;42.3994;20.6547;Kosovo;EU;XKS
Gjilan;42.4689;21.4633;Kosovo;EU;XKS
Lipjan;42.5217;21.1258;Kosovo;EU;XKS
Obiliq;42.6869;21.0703;Kosovo;EU;XKS
Gjakovë;42.3803;20.4308;Kosovo;EU;XKS
Pristina;42.6666;21.1724;Kosovo;EU;XKS
Deçan;42.5378;20.2911;Kosovo;EU;XKS
Istog;42.7808;20.4875;Kosovo;EU;XKS
Hani i Elezit;42.15;21.2967;Kosovo;EU;XKS
Junik;42.4758;20.2772;Kosovo;EU;XKS
Kllokot;42.3714;21.3744;Kosovo;EU;XKS
Mamushë;42.3308;20.7269;Kosovo;EU;XKS
Partesh;42.4019;21.4336;Kosovo;EU;XKS
Ranillug;42.4922;21.5989;Kosovo;EU;XKS
Ferizaj;42.3706;21.1553;Kosovo;EU;XKS
Zveçan;42.9075;20.8403;Kosovo;EU;XKS
Suharekë;42.3586;20.825;Kosovo;EU;XKS
Gllogovc;42.6283;20.8939;Kosovo;EU;XKS
Mitrovicë;42.8833;20.8667;Kosovo;EU;XKS
Skenderaj;42.7467;20.7886;Kosovo;EU;XKS
Novobërdë;42.6178;21.4197;Kosovo;EU;XKS
Graçanicë;42.6011;21.1958;Kosovo;EU;XKS
Longyearbyen;78.2167;15.6333;Svalbard;EU;XSV
Al Quds;31.7764;35.2269;West Bank;AS;XWB
Sanaa;15.3547;44.2066;Yemen;AS;YEM
Marib;15.421;45.334;Yemen;AS;YEM
Al Jabīn;14.704;43.599;Yemen;AS;YEM
Hajjah;15.6917;43.6021;Yemen;AS;YEM
Ibb;13.9759;44.1709;Yemen;AS;YEM
Al Hudaydah;14.7979;42.953;Yemen;AS;YEM
Lahij;13.0582;44.8838;Yemen;AS;YEM
Al Maḩwīt;15.4701;43.5448;Yemen;AS;YEM
Taizz;13.6045;44.0394;Yemen;AS;YEM
Sadah;16.9398;43.8498;Yemen;AS;YEM
Dhamar;14.5575;44.3875;Yemen;AS;YEM
‘Amrān;15.6594;43.9439;Yemen;AS;YEM
Aḑ Ḑāli‘;13.6957;44.7314;Yemen;AS;YEM
Saywun;15.943;48.7873;Yemen;AS;YEM
Al Bayda;13.979;45.574;Yemen;AS;YEM
Zinjibār;13.1287;45.3807;Yemen;AS;YEM
Rida;14.4295;44.8341;Yemen;AS;YEM
'Ataq;14.55;46.8;Yemen;AS;YEM
Al Ghaydah;16.2394;52.1638;Yemen;AS;YEM
Sayhut;15.2105;51.2454;Yemen;AS;YEM
Al Mukalla;14.5412;49.1259;Yemen;AS;YEM
Al Ḩazm;16.1641;44.7769;Yemen;AS;YEM
Zabīd;14.1951;43.3155;Yemen;AS;YEM
Aden;12.7797;45.0095;Yemen;AS;YEM
Hadiboh;12.6519;54.0239;Yemen;AS;YEM
Ash Shihr;14.7593;49.6092;Yemen;AS;YEM
Dzaoudzi;-12.7871;45.275;Mayotte;AF;MYT
Lebowakgomo;-24.1996;29.5;South Africa;AF;ZAF
Potchefstroom;-26.6996;27.1;South Africa;AF;ZAF
Graaff Reinet;-32.3;24.54;South Africa;AF;ZAF
Rustenburg;-25.65;27.24;South Africa;AF;ZAF
Brandfort;-28.6996;26.47;South Africa;AF;ZAF
Vryheid;-27.76;30.79;South Africa;AF;ZAF
Vereeniging;-26.6496;27.96;South Africa;AF;ZAF
Brits;-25.6296;27.78;South Africa;AF;ZAF
Bethlehem;-28.2196;28.3;South Africa;AF;ZAF
Ubomba;-27.5661;32.0833;South Africa;AF;ZAF
Polokwane;-23.89;29.45;South Africa;AF;ZAF
Springbok;-29.6667;17.8833;South Africa;AF;ZAF
Thohoyandou;-22.95;30.48;South Africa;AF;ZAF
Pietermaritzburg;-29.61;30.39;South Africa;AF;ZAF
Poffader;-29.1329;19.3834;South Africa;AF;ZAF
Carnarvon;-30.9496;22.1333;South Africa;AF;ZAF
Kroonstad;-27.66;27.21;South Africa;AF;ZAF
Alexander Bay;-28.6083;16.5033;South Africa;AF;ZAF
Bloemhof;-27.6496;25.59;South Africa;AF;ZAF
Hermanus;-34.4096;19.2299;South Africa;AF;ZAF
Bethal;-26.4696;29.45;South Africa;AF;ZAF
Upington;-28.46;21.23;South Africa;AF;ZAF
Tzaneen;-23.8195;30.17;South Africa;AF;ZAF
Vanhynsdorp;-31.6166;18.7333;South Africa;AF;ZAF
Kimberley;-28.7468;24.77;South Africa;AF;ZAF
Durban;-29.865;30.98;South Africa;AF;ZAF
Klerksdorp;-26.88;26.62;South Africa;AF;ZAF
Welkom;-27.97;26.73;South Africa;AF;ZAF
De Aar;-30.65;24.0;South Africa;AF;ZAF
Prieska;-29.6595;22.73;South Africa;AF;ZAF
Saldanha;-33.01;17.93;South Africa;AF;ZAF
Middelburg;-31.5;25.01;South Africa;AF;ZAF
Port St. Johns;-31.6279;29.5283;South Africa;AF;ZAF
Volksrust;-27.3596;29.89;South Africa;AF;ZAF
Ulundi;-28.3296;31.41;South Africa;AF;ZAF
Beaufort West;-32.3496;22.57;South Africa;AF;ZAF
Komatipoort;-25.4096;31.94;South Africa;AF;ZAF
Nelspruit;-25.4745;30.9703;South Africa;AF;ZAF
Standerton;-26.9395;29.24;South Africa;AF;ZAF
Johannesburg;-26.17;28.03;South Africa;AF;ZAF
Kuruman;-27.4496;23.42;South Africa;AF;ZAF
Paarl;-33.6996;18.96;South Africa;AF;ZAF
Worcester;-33.64;19.4399;South Africa;AF;ZAF
Colesberg;-30.7195;25.1;South Africa;AF;ZAF
Umtata;-31.58;28.79;South Africa;AF;ZAF
Aliwal North;-30.6896;26.71;South Africa;AF;ZAF
Middelburg;-25.7596;29.47;South Africa;AF;ZAF
Springs;-26.2696;28.43;South Africa;AF;ZAF
Benoni;-26.1496;28.3299;South Africa;AF;ZAF
Port Shepstone;-30.7195;30.46;South Africa;AF;ZAF
Oudtshoorn;-33.58;22.19;South Africa;AF;ZAF
Port Elizabeth;-33.97;25.6;South Africa;AF;ZAF
Port Alfred;-33.5995;26.88;South Africa;AF;ZAF
East London;-32.97;27.87;South Africa;AF;ZAF
Mossel Bay;-34.17;22.13;South Africa;AF;ZAF
Vryburg;-26.96;24.73;South Africa;AF;ZAF
Uitenhage;-33.7596;25.39;South Africa;AF;ZAF
Bhisho;-32.87;27.39;South Africa;AF;ZAF
Knysna;-34.0329;23.0333;South Africa;AF;ZAF
Queenstown;-31.8996;26.88;South Africa;AF;ZAF
Cradock;-32.1995;25.61;South Africa;AF;ZAF
Bredasdorp;-34.5295;20.03;South Africa;AF;ZAF
Swellendam;-34.0196;20.43;South Africa;AF;ZAF
Ladysmith;-28.5495;29.78;South Africa;AF;ZAF
George;-33.95;22.45;South Africa;AF;ZAF
Grahamstown;-33.2996;26.52;South Africa;AF;ZAF
Mmabatho;-25.83;25.61;South Africa;AF;ZAF
Mahikeng;-25.8652;25.6442;South Africa;AF;ZAF
Musina;-22.34;30.03;South Africa;AF;ZAF
Pretoria;-25.7069;28.2294;South Africa;AF;ZAF
Bloemfontein;-29.12;26.2299;South Africa;AF;ZAF
Cape Town;-33.92;18.435;South Africa;AF;ZAF
Zambezi;-13.54;23.1099;Zambia;AF;ZMB
Solwezi;-12.1796;26.4;Zambia;AF;ZMB
Lusaka;-15.4166;28.2833;Zambia;AF;ZMB
Kaoma;-14.7796;24.8;Zambia;AF;ZMB
Chipata;-13.6296;32.64;Zambia;AF;ZMB
Senanga;-16.1196;23.27;Zambia;AF;ZMB
Sesheke;-17.4695;24.3;Zambia;AF;ZMB
Chililabombwe;-12.3696;27.82;Zambia;AF;ZMB
Chingola;-12.5396;27.85;Zambia;AF;ZMB
Kasempa;-13.4596;25.82;Zambia;AF;ZMB
Kitwe;-12.81;28.22;Zambia;AF;ZMB
Mufulira;-12.55;28.26;Zambia;AF;ZMB
Nchelenge;-9.3496;28.73;Zambia;AF;ZMB
Mazabuka;-15.86;27.76;Zambia;AF;ZMB
Lukulu;-14.3896;23.24;Zambia;AF;ZMB
Kafue;-15.78;28.18;Zambia;AF;ZMB
Lundazi;-12.2895;33.17;Zambia;AF;ZMB
Mansa;-11.2;28.89;Zambia;AF;ZMB
Mwinilunga;-11.7396;24.44;Zambia;AF;ZMB
Mumbwa;-14.9796;27.07;Zambia;AF;ZMB
Kalabo;-14.9896;22.68;Zambia;AF;ZMB
Nyimba;-14.5495;30.81;Zambia;AF;ZMB
Kapiri Mposhi;-13.9696;28.66;Zambia;AF;ZMB
Kabwe;-14.44;28.45;Zambia;AF;ZMB
Ndola;-12.9999;28.65;Zambia;AF;ZMB
Kasama;-10.1996;31.1799;Zambia;AF;ZMB
Mbala;-8.84;31.37;Zambia;AF;ZMB
Kawambwa;-9.7795;29.08;Zambia;AF;ZMB
Luanshya;-13.1333;28.4;Zambia;AF;ZMB
Mongu;-15.2796;23.12;Zambia;AF;ZMB
Mpika;-11.83;31.46;Zambia;AF;ZMB
Chinsali;-10.5496;32.06;Zambia;AF;ZMB
Livingstone;-17.86;25.86;Zambia;AF;ZMB
Choma;-16.8095;26.97;Zambia;AF;ZMB
Plumtree;-20.4795;27.82;Zimbabwe;AF;ZWE
Kariba;-16.5296;28.8;Zimbabwe;AF;ZWE
Hwange;-18.37;26.5;Zimbabwe;AF;ZWE
Chiredzi;-21.0496;31.66;Zimbabwe;AF;ZWE
Mazowe;-17.5196;30.97;Zimbabwe;AF;ZWE
Zvishavane;-20.3296;30.05;Zimbabwe;AF;ZWE
Shamva;-17.3196;31.57;Zimbabwe;AF;ZWE
Harare;-17.8178;31.0447;Zimbabwe;AF;ZWE
Kwekwe;-18.9296;29.8;Zimbabwe;AF;ZWE
Kadoma;-18.33;29.9099;Zimbabwe;AF;ZWE
Beitbridge;-22.2096;29.99;Zimbabwe;AF;ZWE
Karoi;-16.8196;29.68;Zimbabwe;AF;ZWE
Victoria Falls;-17.9296;25.84;Zimbabwe;AF;ZWE
Chitungwiza;-18.0;31.1;Zimbabwe;AF;ZWE
Bindura;-17.3019;31.3306;Zimbabwe;AF;ZWE
Lupane;-18.9315;27.807;Zimbabwe;AF;ZWE
Marondera;-18.1853;31.5519;Zimbabwe;AF;ZWE
Masvingo;-20.0596;30.82;Zimbabwe;AF;ZWE
Mutare;-18.97;32.65;Zimbabwe;AF;ZWE
Bulawayo;-20.17;28.58;Zimbabwe;AF;ZWE
Chinhoyi;-17.3596;30.18;Zimbabwe;AF;ZWE
Gwanda;-20.9396;29.01;Zimbabwe;AF;ZWE
Gweru;-19.45;29.82;Zimbabwe;AF;ZWE
Maqat;47.6482;53.3265;Kazakhstan;AS;KAZ
Zhangaozen;43.3004;52.8;Kazakhstan;AS;KAZ
Taraz;42.9;71.365;Kazakhstan;AS;KAZ
Oral;51.2711;51.335;Kazakhstan;AS;KAZ
Balqash;46.8532;74.9502;Kazakhstan;AS;KAZ
Zaysan;47.4752;84.8598;Kazakhstan;AS;KAZ
Oytal;42.9153;73.2549;Kazakhstan;AS;KAZ
Zholymbet;51.7502;71.7099;Kazakhstan;AS;KAZ
Serebryansk;49.6999;83.4249;Kazakhstan;AS;KAZ
Chapaev;50.1915;51.1449;Kazakhstan;AS;KAZ
Ridder;50.3554;83.5149;Kazakhstan;AS;KAZ
Zhaltyr;51.6324;69.8328;Kazakhstan;AS;KAZ
Atbasar;51.8219;68.3477;Kazakhstan;AS;KAZ
Aqsay;51.1714;53.0349;Kazakhstan;AS;KAZ
Shemonaikha;50.6316;81.905;Kazakhstan;AS;KAZ
Atasu;48.6903;71.6499;Kazakhstan;AS;KAZ
Rudny;52.9527;63.13;Kazakhstan;AS;KAZ
Makhambet;47.6714;51.5798;Kazakhstan;AS;KAZ
Fort Shevchenko;44.5171;50.2666;Kazakhstan;AS;KAZ
Qusmuryn;52.458;64.6;Kazakhstan;AS;KAZ
Oktyabrsk;49.4731;57.4449;Kazakhstan;AS;KAZ
Khromtau;50.2699;58.45;Kazakhstan;AS;KAZ
Algha;49.9032;57.335;Kazakhstan;AS;KAZ
Embi;48.8268;58.1442;Kazakhstan;AS;KAZ
Ushtobe;45.2653;77.97;Kazakhstan;AS;KAZ
Burylbaytal;44.9387;74.0303;Kazakhstan;AS;KAZ
Zhanibek;49.4276;46.8772;Kazakhstan;AS;KAZ
Esil;51.957;66.3775;Kazakhstan;AS;KAZ
Derzhavinsk;51.1021;66.3075;Kazakhstan;AS;KAZ
Saryshaghan;46.1195;73.6191;Kazakhstan;AS;KAZ
Turgay;49.626;63.499;Kazakhstan;AS;KAZ
Sarqan;45.4203;79.9149;Kazakhstan;AS;KAZ
Arqalyq;50.2418;66.8976;Kazakhstan;AS;KAZ
Shalqar;47.8363;59.6141;Kazakhstan;AS;KAZ
Shieli;44.167;66.75;Kazakhstan;AS;KAZ
Bayghanin;48.6917;55.874;Kazakhstan;AS;KAZ
Zhezqazghan;47.78;67.77;Kazakhstan;AS;KAZ
Mangyshlak;43.6905;51.1417;Kazakhstan;AS;KAZ
Zhosaly;45.4877;64.078;Kazakhstan;AS;KAZ
Beyneu;45.1834;55.1;Kazakhstan;AS;KAZ
Qazaly;45.7628;62.1075;Kazakhstan;AS;KAZ
Aral;46.8;61.6666;Kazakhstan;AS;KAZ
Ayakoz;47.9647;80.4297;Kazakhstan;AS;KAZ
Urzhar;47.1002;81.6048;Kazakhstan;AS;KAZ
Qapshaghay;43.8844;77.0687;Kazakhstan;AS;KAZ
Esik;43.3691;77.4438;Kazakhstan;AS;KAZ
Qaratau;43.1854;70.46;Kazakhstan;AS;KAZ
Sharbaqty;52.4999;78.1499;Kazakhstan;AS;KAZ
Oostanay;53.2209;63.6283;Kazakhstan;AS;KAZ
Kachiry;53.0804;76.09;Kazakhstan;AS;KAZ
Kishkenekol;53.6368;72.3414;Kazakhstan;AS;KAZ
Bulaevo;54.9053;70.44;Kazakhstan;AS;KAZ
Shonzhy;43.5421;79.4703;Kazakhstan;AS;KAZ
Qyzylorda;44.8;65.465;Kazakhstan;AS;KAZ
Qaraghandy;49.885;73.115;Kazakhstan;AS;KAZ
Ertis;53.3453;75.4499;Kazakhstan;AS;KAZ
Tayynsha;53.8481;69.7638;Kazakhstan;AS;KAZ
Qulan;42.9204;72.705;Kazakhstan;AS;KAZ
Shu;43.5953;73.7448;Kazakhstan;AS;KAZ
Kentau;43.5165;68.5199;Kazakhstan;AS;KAZ
Oskemen;49.99;82.6149;Kazakhstan;AS;KAZ
Aqtau;43.6232;51.2365;Kazakhstan;AS;KAZ
Taldyqorghan;45.0;78.4;Kazakhstan;AS;KAZ
Astana;51.1811;71.4278;Kazakhstan;AS;KAZ
Aqtobe;50.28;57.17;Kazakhstan;AS;KAZ
Kokshetau;53.3;69.42;Kazakhstan;AS;KAZ
Petropavlovsk;54.88;69.22;Kazakhstan;AS;KAZ
Pavlodar;52.3;76.95;Kazakhstan;AS;KAZ
Otar;43.5346;75.2139;Kazakhstan;AS;KAZ
Almaty;43.325;76.915;Kazakhstan;AS;KAZ
Bestobe;52.4997;73.0997;Kazakhstan;AS;KAZ
Arys;42.4369;68.8048;Kazakhstan;AS;KAZ
Lenger;42.1899;69.8799;Kazakhstan;AS;KAZ
Aqsu;52.4502;71.9597;Kazakhstan;AS;KAZ
Temirtau;50.065;72.965;Kazakhstan;AS;KAZ
Makinsk;52.6404;70.41;Kazakhstan;AS;KAZ
Osakarovka;50.5799;72.5699;Kazakhstan;AS;KAZ
Qarqaraly;49.4249;75.4649;Kazakhstan;AS;KAZ
Ekibastuz;51.73;75.3199;Kazakhstan;AS;KAZ
Zyryanovsk;49.7453;84.2548;Kazakhstan;AS;KAZ
Komsomolets;53.7506;62.0502;Kazakhstan;AS;KAZ
Baykonur;45.6914;63.2413;Kazakhstan;AS;KAZ
Erymentau;51.6303;73.1049;Kazakhstan;AS;KAZ
Qarazhal;48.0253;70.7999;Kazakhstan;AS;KAZ
Tobol;52.698;62.5749;Kazakhstan;AS;KAZ
Shar;49.6003;81.0549;Kazakhstan;AS;KAZ
Semey;50.435;80.275;Kazakhstan;AS;KAZ
Boralday;43.3341;76.8288;Kazakhstan;AS;KAZ
Zhetiqara;52.193;61.2399;Kazakhstan;AS;KAZ
Aqadyr;48.2749;72.8599;Kazakhstan;AS;KAZ
Zharkent;44.1616;79.9801;Kazakhstan;AS;KAZ
Qulsary;46.9833;54.0165;Kazakhstan;AS;KAZ
Balyqshy;47.0666;51.8666;Kazakhstan;AS;KAZ
Atyrau;47.1127;51.92;Kazakhstan;AS;KAZ
Shymkent;42.32;69.595;Kazakhstan;AS;KAZ
Turkistan;43.3016;68.2549;Kazakhstan;AS;KAZ
Xiangkhoang;19.3337;103.3666;Laos;AS;LAO
Muang Phônsavan;19.45;103.2167;Laos;AS;LAO
Vientiane;17.9667;102.6;Laos;AS;LAO
Ban Houayxay;20.2775;100.4128;Laos;AS;LAO
Muang Phôn-Hông;18.4957;102.4142;Laos;AS;LAO
Louang Namtha;20.95;101.4167;Laos;AS;LAO
Phongsali;21.6833;102.1;Laos;AS;LAO
Thakhek;17.4112;104.8361;Laos;AS;LAO
Muang Pakxan;18.3826;103.6586;Laos;AS;LAO
Louangphrabang;19.8845;102.1416;Laos;AS;LAO
Xaignabouri;19.2505;101.7501;Laos;AS;LAO
Savannakhet;16.5376;104.773;Laos;AS;LAO
Lamam;15.4171;106.6946;Laos;AS;LAO
Pakxe;15.1221;105.8183;Laos;AS;LAO
Attapu;14.808;106.839;Laos;AS;LAO
Xam Nua;20.4167;104.0333;Laos;AS;LAO
Muang Xai;20.6923;101.9847;Laos;AS;LAO
Saravan;15.716;106.427;Laos;AS;LAO
Champasak;14.8833;105.8667;Laos;AS;LAO
Beirut;33.872;35.5097;Lebanon;AS;LBN
Zahlé;33.8501;35.9042;Lebanon;AS;LBN
Baalbek;34.0058;36.2181;Lebanon;AS;LBN
B'abda;33.8333;35.5333;Lebanon;AS;LBN
Halba;34.5428;36.0797;Lebanon;AS;LBN
Saida;33.563;35.3688;Lebanon;AS;LBN
Nabatiye et Tahta;33.3833;35.45;Lebanon;AS;LBN
Trablous;34.42;35.87;Lebanon;AS;LBN
Castries;14.002;-61.0;Saint Lucia;NA;LCA
Gamprin;47.2197;9.5113;Liechtenstein;EU;LIE
Triesenberg;47.1182;9.5444;Liechtenstein;EU;LIE
Schaan;47.1661;9.5096;Liechtenstein;EU;LIE
Ruggell;47.2408;9.5247;Liechtenstein;EU;LIE
Mauren;47.2205;9.5426;Liechtenstein;EU;LIE
Eschen;47.2109;9.5216;Liechtenstein;EU;LIE
Triesen;47.1101;9.524;Liechtenstein;EU;LIE
Balzers;47.0667;9.5025;Liechtenstein;EU;LIE
Vaduz;47.1337;9.5167;Liechtenstein;EU;LIE
Planken;47.1844;9.5436;Liechtenstein;EU;LIE
Schellenberg;47.2325;9.5463;Liechtenstein;EU;LIE
Colombo;6.932;79.8578;Sri Lanka;AS;LKA
Ratnapura;6.693;80.386;Sri Lanka;AS;LKA
Matara;5.949;80.5428;Sri Lanka;AS;LKA
Sri Jawewardenepura Kotte;6.9;79.95;Sri Lanka;AS;LKA
Moratuwa;6.7804;79.88;Sri Lanka;AS;LKA
Anuradhapura;8.35;80.3833;Sri Lanka;AS;LKA
Galle;6.03;80.24;Sri Lanka;AS;LKA
Puttalan;8.033;79.826;Sri Lanka;AS;LKA
Kandy;7.28;80.67;Sri Lanka;AS;LKA
Badulla;6.9837;81.0499;Sri Lanka;AS;LKA
Trincomalee;8.569;81.233;Sri Lanka;AS;LKA
Kilinochchi;9.4004;80.3999;Sri Lanka;AS;LKA
Batticaloa;7.717;81.7;Sri Lanka;AS;LKA
Jaffna;9.675;80.005;Sri Lanka;AS;LKA
Bopolu;7.0667;-10.4875;Liberia;AF;LBR
Voinjama;8.4167;-9.75;Liberia;AF;LBR
Robertsport;6.7533;-11.3686;Liberia;AF;LBR
Buchanan;5.9161;-10.0525;Liberia;AF;LBR
Monrovia;6.3106;-10.8048;Liberia;AF;LBR
Tubmanburg;6.8706;-10.8211;Liberia;AF;LBR
Buchanan;5.8811;-10.0447;Liberia;AF;LBR
Zwedru;6.0704;-8.13;Liberia;AF;LBR
Barclayville;4.8;-8.1667;Liberia;AF;LBR
Rivercess;5.465;-9.578;Liberia;AF;LBR
Fish Town;5.1974;-7.8758;Liberia;AF;LBR
Gbarnga;7.0104;-9.49;Liberia;AF;LBR
Kakata;6.526;-10.349;Liberia;AF;LBR
Sanniquellie;7.371;-8.685;Liberia;AF;LBR
Greenville;5.0111;-9.0388;Liberia;AF;LBR
Bensonville;6.4333;-10.6;Liberia;AF;LBR
Harper;4.3754;-7.717;Liberia;AF;LBR
Maseru;-29.3167;27.4833;Lesotho;AF;LSO
Mokhotlong;-29.291;29.078;Lesotho;AF;LSO
Thaba-Tseka;-29.522;28.6084;Lesotho;AF;LSO
Moyeni;-30.411;27.716;Lesotho;AF;LSO
Qacha’s Nek;-30.1154;28.6894;Lesotho;AF;LSO
Mafetang;-29.8166;27.25;Lesotho;AF;LSO
Hlotse;-28.878;28.056;Lesotho;AF;LSO
Teyateyaneng;-29.153;27.753;Lesotho;AF;LSO
Mohales Hoek;-30.159;27.48;Lesotho;AF;LSO
Butha-Buthe;-28.75;28.25;Lesotho;AF;LSO
Klaipėda;55.7204;21.1199;Lithuania;EU;LTU
Palanga;55.9203;21.071;Lithuania;EU;LTU
Nida;55.3086;20.9965;Lithuania;EU;LTU
Kretinga;55.8888;21.2445;Lithuania;EU;LTU
Tauragė;55.2522;22.2897;Lithuania;EU;LTU
Šilutė;55.3453;21.4733;Lithuania;EU;LTU
Rietavas;55.7271;21.9234;Lithuania;EU;LTU
Plungė;55.9077;21.8456;Lithuania;EU;LTU
Šilalė;55.4898;22.1869;Lithuania;EU;LTU
Visaginas;55.5968;26.4398;Lithuania;EU;LTU
Zarasai;55.7322;26.2512;Lithuania;EU;LTU
Ignalina;55.3406;26.1605;Lithuania;EU;LTU
Utena;55.4976;25.5992;Lithuania;EU;LTU
Švenčionys;55.133;26.1595;Lithuania;EU;LTU
Rokiškis;55.9587;25.5947;Lithuania;EU;LTU
Molėtai;55.2247;25.4169;Lithuania;EU;LTU
Šalčininkai;54.3086;25.3868;Lithuania;EU;LTU
Vilnius;54.6834;25.3166;Lithuania;EU;LTU
Kupiškis;55.8401;24.9803;Lithuania;EU;LTU
Trakai;54.6399;24.936;Lithuania;EU;LTU
Biržai;56.1986;24.7521;Lithuania;EU;LTU
Anykščiai;55.5246;25.1066;Lithuania;EU;LTU
Telšiai;55.9831;22.2343;Lithuania;EU;LTU
Kelmė;55.6301;22.9349;Lithuania;EU;LTU
Marijampolė;54.5599;23.3541;Lithuania;EU;LTU
Lazdijai;54.2333;23.5147;Lithuania;EU;LTU
Šakiai;54.9534;23.0478;Lithuania;EU;LTU
Radviliškis;55.8111;23.5411;Lithuania;EU;LTU
Šiauliai;55.9386;23.325;Lithuania;EU;LTU
Birštonas;54.6048;24.0311;Lithuania;EU;LTU
Druskininkai;54.0157;23.987;Lithuania;EU;LTU
Kėdainiai;55.2878;23.9727;Lithuania;EU;LTU
Alytus;54.3964;24.0414;Lithuania;EU;LTU
Prienai;54.636;23.9458;Lithuania;EU;LTU
Elektrėnai;54.7863;24.6626;Lithuania;EU;LTU
Kaunas;54.9504;23.88;Lithuania;EU;LTU
Jonava;55.0801;24.2754;Lithuania;EU;LTU
Kaišiadorys;54.8653;24.4682;Lithuania;EU;LTU
Panevežys;55.74;24.37;Lithuania;EU;LTU
Joniškis;56.2394;23.6154;Lithuania;EU;LTU
Kazlų Rūda;54.7497;23.495;Lithuania;EU;LTU
Vilkaviškis;54.648;23.0305;Lithuania;EU;LTU
Pasvalys;56.0625;24.3997;Lithuania;EU;LTU
Pakruojis;55.9789;23.8551;Lithuania;EU;LTU
Raseiniai;55.3797;23.1239;Lithuania;EU;LTU
Pagėgiai;55.1379;21.9138;Lithuania;EU;LTU
Jurbarkas;55.0756;22.7642;Lithuania;EU;LTU
Kalvarija;54.4172;23.2283;Lithuania;EU;LTU
Širvintos;55.044;24.9545;Lithuania;EU;LTU
Skuodas;56.2706;21.5321;Lithuania;EU;LTU
Mažeikiai;56.3122;22.3265;Lithuania;EU;LTU
Akmenė;56.25;22.75;Lithuania;EU;LTU
Ukmergė;55.2494;24.7636;Lithuania;EU;LTU
Varėna;54.2155;24.5754;Lithuania;EU;LTU
Capellen;49.645;5.9908;Luxembourg;EU;LUX
Esch-sur-Alzette;49.4958;5.9806;Luxembourg;EU;LUX
Remich;49.545;6.3669;Luxembourg;EU;LUX
Echternach;49.8056;6.4222;Luxembourg;EU;LUX
Mersch;49.7489;6.1061;Luxembourg;EU;LUX
Redange-sur-Attert;49.7656;5.8908;Luxembourg;EU;LUX
Vianden;49.935;6.2089;Luxembourg;EU;LUX
Wiltz;49.9689;5.9319;Luxembourg;EU;LUX
Clervaux;50.0547;6.0314;Luxembourg;EU;LUX
Diekirch;49.8833;6.1667;Luxembourg;EU;LUX
Grevenmacher;49.7;6.3333;Luxembourg;EU;LUX
Luxembourg;49.6117;6.13;Luxembourg;EU;LUX
Auce;56.4611;22.9028;Latvia;EU;LVA
Daugavpils;55.88;26.51;Latvia;EU;LVA
Jēkabpils;56.4833;25.85;Latvia;EU;LVA
Salacgrīva;57.7531;24.359;Latvia;EU;LVA
Ventspils;57.3899;21.5606;Latvia;EU;LVA
Dundaga;57.505;22.3504;Latvia;EU;LVA
Jaunjelgava;56.6132;25.0832;Latvia;EU;LVA
Nereta;56.2044;25.3077;Latvia;EU;LVA
Alsunga;56.9801;21.564;Latvia;EU;LVA
Kuldīga;56.969;21.968;Latvia;EU;LVA
Pāvilosta;56.8898;21.1817;Latvia;EU;LVA
Piņķi;56.9419;23.9137;Latvia;EU;LVA
Ādaži;57.0705;24.3371;Latvia;EU;LVA
Kandava;57.0389;22.7724;Latvia;EU;LVA
Roja;57.5015;22.8088;Latvia;EU;LVA
Carnikava;57.1293;24.2842;Latvia;EU;LVA
Garkalne;57.0449;24.4195;Latvia;EU;LVA
Saulkrasti;57.2599;24.4189;Latvia;EU;LVA
Smārde;56.9533;23.3387;Latvia;EU;LVA
Mērsrags;57.3364;23.1235;Latvia;EU;LVA
Talsi;57.2465;22.5876;Latvia;EU;LVA
Jūrmala;56.9567;23.7233;Latvia;EU;LVA
Mārupe;56.9032;24.0467;Latvia;EU;LVA
Ulbroka;56.9363;24.3039;Latvia;EU;LVA
Zilupe;56.386;28.1218;Latvia;EU;LVA
Ludza;56.5396;27.7189;Latvia;EU;LVA
Dagda;56.0961;27.5328;Latvia;EU;LVA
Baltinava;56.9439;27.644;Latvia;EU;LVA
Cibla;56.5498;27.8837;Latvia;EU;LVA
Kārsava;56.7874;27.6732;Latvia;EU;LVA
Riga;56.95;24.1;Latvia;EU;LVA
Krāslava;55.8969;27.172;Latvia;EU;LVA
Limbaži;57.513;24.724;Latvia;EU;LVA
Preiļi;56.294;26.7248;Latvia;EU;LVA
Vecvārkava;56.1984;26.5081;Latvia;EU;LVA
Ilūkste;55.9779;26.2978;Latvia;EU;LVA
Nīca;56.3456;21.0646;Latvia;EU;LVA
Bauska;56.4079;24.1944;Latvia;EU;LVA
Viļaka;57.1843;27.6719;Latvia;EU;LVA
Līvāni;56.3567;26.1761;Latvia;EU;LVA
Alūksne;57.4216;27.0466;Latvia;EU;LVA
Jaunpils;56.7314;23.0125;Latvia;EU;LVA
Brocēni;56.6789;22.5694;Latvia;EU;LVA
Rugāji;57.0033;27.1337;Latvia;EU;LVA
Riebiņi;56.3403;26.7999;Latvia;EU;LVA
Viļāni;56.5505;26.9298;Latvia;EU;LVA
Varakļāni;56.6091;26.7547;Latvia;EU;LVA
Ape;57.5394;26.694;Latvia;EU;LVA
Madona;56.851;26.2184;Latvia;EU;LVA
Jaunpiebalga;57.1775;26.0284;Latvia;EU;LVA
Lubāna;56.9043;26.7161;Latvia;EU;LVA
Gulbene;57.1734;26.7527;Latvia;EU;LVA
Balvi;57.1287;27.27;Latvia;EU;LVA
Aknīste;56.1615;25.7482;Latvia;EU;LVA
Viesīte;56.3465;25.5581;Latvia;EU;LVA
Cesvaine;56.9675;26.3076;Latvia;EU;LVA
Ķegums;56.7455;24.725;Latvia;EU;LVA
Vecpiebalga;57.0618;25.8179;Latvia;EU;LVA
Smiltene;57.4242;25.9017;Latvia;EU;LVA
Drabeši;57.2433;25.2803;Latvia;EU;LVA
Cēsis;57.3091;25.2761;Latvia;EU;LVA
Ērgļi;56.8988;25.6429;Latvia;EU;LVA
Valka;57.7767;26.0118;Latvia;EU;LVA
Grobiņa;56.5358;21.1747;Latvia;EU;LVA
Strenči;57.6269;25.6919;Latvia;EU;LVA
Mūrmuiža;57.4731;25.4917;Latvia;EU;LVA
Mazsalaca;57.8619;25.0547;Latvia;EU;LVA
Aloja;57.7672;24.8774;Latvia;EU;LVA
Burtnieki;57.6949;25.275;Latvia;EU;LVA
Koknese;56.6516;25.4364;Latvia;EU;LVA
Aizkraukle;56.6029;25.2636;Latvia;EU;LVA
Skrīveri;56.6485;25.1195;Latvia;EU;LVA
Baldone;56.7445;24.4008;Latvia;EU;LVA
Vecumnieki;56.6061;24.5223;Latvia;EU;LVA
Sala;56.5047;25.7618;Latvia;EU;LVA
Pļaviņas;56.6177;25.7194;Latvia;EU;LVA
Liepaga;56.51;21.01;Latvia;EU;LVA
Rūjiena;57.8961;25.3342;Latvia;EU;LVA
Naukšēni;57.8842;25.458;Latvia;EU;LVA
Lieģi;56.5797;21.3338;Latvia;EU;LVA
Rauna;57.3337;25.6085;Latvia;EU;LVA
Aizpute;56.7211;21.6016;Latvia;EU;LVA
Kocēni;57.5198;25.3404;Latvia;EU;LVA
Valmiera;57.5387;25.4257;Latvia;EU;LVA
Sigulda;57.1538;24.8595;Latvia;EU;LVA
Priekuļi;57.3115;25.3571;Latvia;EU;LVA
Ogre;56.8113;24.6113;Latvia;EU;LVA
Ragana;57.1821;24.7056;Latvia;EU;LVA
Loja;57.1534;24.6433;Latvia;EU;LVA
Ropaži;56.9747;24.6329;Latvia;EU;LVA
Priekule;56.4458;21.5939;Latvia;EU;LVA
Iecava;56.5977;24.2076;Latvia;EU;LVA
Rucava;56.164;21.1627;Latvia;EU;LVA
Pilsrundāle;56.4181;24.0162;Latvia;EU;LVA
Salaspils;56.861;24.3498;Latvia;EU;LVA
Ikšķile;56.834;24.4968;Latvia;EU;LVA
Lielvārde;56.7213;24.8062;Latvia;EU;LVA
Inčukalns;57.0987;24.6863;Latvia;EU;LVA
Mālpils;57.0101;24.9578;Latvia;EU;LVA
Olaine;56.7947;23.9358;Latvia;EU;LVA
Ķekava;56.8296;24.2318;Latvia;EU;LVA
Līgatne;57.2379;25.0436;Latvia;EU;LVA
Stalbe;57.3708;25.0324;Latvia;EU;LVA
Jelgava;56.6527;23.7128;Latvia;EU;LVA
Skrunda;56.6775;22.0165;Latvia;EU;LVA
Vaiņode;56.4185;21.8541;Latvia;EU;LVA
Saldus;56.6666;22.4935;Latvia;EU;LVA
Tukums;56.9676;23.1555;Latvia;EU;LVA
Tērvete;56.4798;23.3902;Latvia;EU;LVA
Dobele;56.6237;23.2751;Latvia;EU;LVA
Rēzekne;56.5;27.3166;Latvia;EU;LVA
Aglona;56.1327;27.0068;Latvia;EU;LVA
Ozolnieki;56.6899;23.7761;Latvia;EU;LVA
Tripoli;32.8925;13.18;Libya;AF;LBY
Al ‘Azīzīyah;32.5319;13.0175;Libya;AF;LBY
Zuwarah;32.9344;12.0791;Libya;AF;LBY
Al Khums;32.6604;14.26;Libya;AF;LBY
As Sidr;30.6704;18.2666;Libya;AF;LBY
Ghadamis;30.1333;9.5;Libya;AF;LBY
Dirj;30.1679;10.4567;Libya;AF;LBY
Nalut;31.8804;10.97;Libya;AF;LBY
Umm al Abid;27.517;15.0333;Libya;AF;LBY
Sabha;27.0333;14.4333;Libya;AF;LBY
Birak;27.5333;14.2834;Libya;AF;LBY
Idrī;27.4471;13.0517;Libya;AF;LBY
Zillah;28.5504;17.5834;Libya;AF;LBY
Hun;29.1167;15.9333;Libya;AF;LBY
Az Zawiyah;32.7604;12.72;Libya;AF;LBY
Awjilah;29.108;21.2869;Libya;AF;LBY
El Agheila;30.257;19.2;Libya;AF;LBY
Maradah;29.2337;19.2166;Libya;AF;LBY
Ajdabiya;30.77;20.22;Libya;AF;LBY
Darnah;32.7648;22.6391;Libya;AF;LBY
Al Jaghbub;29.7504;24.5166;Libya;AF;LBY
Mizdah;31.4337;12.9833;Libya;AF;LBY
Gharyan;32.1704;13.02;Libya;AF;LBY
Tubruq;32.08;23.96;Libya;AF;LBY
Shahhat;32.8281;21.8622;Libya;AF;LBY
Tajarhi;24.3704;14.4708;Libya;AF;LBY
Al Bayda;32.7604;21.62;Libya;AF;LBY
Ghat;24.9647;10.1728;Libya;AF;LBY
Tmassah;26.3666;15.8;Libya;AF;LBY
Marzuq;25.9044;13.8972;Libya;AF;LBY
Al Marj;32.5005;20.83;Libya;AF;LBY
Surt;31.21;16.59;Libya;AF;LBY
Bani Walid;31.7704;13.99;Libya;AF;LBY
Awbārī;26.5903;12.7751;Libya;AF;LBY
Al Jawf;24.2;23.29;Libya;AF;LBY
Al Kufrah;24.1667;23.2696;Libya;AF;LBY
Qaminis;31.6606;20.0155;Libya;AF;LBY
Banghazi;32.1167;20.0667;Libya;AF;LBY
Misratah;32.38;15.1;Libya;AF;LBY
Kenitra;34.2704;-6.58;Morocco;AF;MAR
Goulimine;28.98;-10.07;Morocco;AF;MAR
Fez;34.0546;-5.0004;Morocco;AF;MAR
Casablanca;33.6;-7.6164;Morocco;AF;MAR
Agadir;30.44;-9.62;Morocco;AF;MAR
Béni Mellal;32.3373;-6.3498;Morocco;AF;MAR
Tangier;35.7473;-5.8327;Morocco;AF;MAR
Settat;33.0104;-7.62;Morocco;AF;MAR
Oujda;34.69;-1.91;Morocco;AF;MAR
Meknes;33.9004;-5.56;Morocco;AF;MAR
Rabat;34.0253;-6.8361;Morocco;AF;MAR
Marrakesh;31.63;-8.0;Morocco;AF;MAR
El Jadida;33.2604;-8.51;Morocco;AF;MAR
Er Rachidia;31.9404;-4.45;Morocco;AF;MAR
Tan Tan;28.4304;-11.1;Morocco;AF;MAR
Taza;34.2204;-4.02;Morocco;AF;MAR
Larache;35.2004;-6.16;Morocco;AF;MAR
Ksar El Kebir;35.0204;-5.91;Morocco;AF;MAR
Safi;32.32;-9.24;Morocco;AF;MAR
Tiznit;29.7104;-9.74;Morocco;AF;MAR
Ouezzane;34.8103;-5.57;Morocco;AF;MAR
Monaco;43.7396;7.4069;Monaco;EU;MCO
Leova;46.4823;28.253;Moldova;EU;MDA
Rezina;47.7493;28.9658;Moldova;EU;MDA
Căuşeni;46.6367;29.4111;Moldova;EU;MDA
Rîşcani;47.9479;27.5638;Moldova;EU;MDA
Sîngerei;47.6363;28.143;Moldova;EU;MDA
Făleşti;47.5767;27.7126;Moldova;EU;MDA
Floreşti;47.8914;28.2931;Moldova;EU;MDA
Şoldăneşti;47.8161;28.7972;Moldova;EU;MDA
Ştefan Vodă;46.5129;29.6619;Moldova;EU;MDA
Orhei;47.3849;28.8245;Moldova;EU;MDA
Comrat;46.2946;28.6565;Moldova;EU;MDA
Cimişlia;46.5268;28.7644;Moldova;EU;MDA
Cantemir;46.2774;28.2027;Moldova;EU;MDA
Basarabeasca;46.3317;28.9636;Moldova;EU;MDA
Edineţ;48.1721;27.3034;Moldova;EU;MDA
Ocniţa;48.3827;27.4381;Moldova;EU;MDA
Drochia;48.0355;27.8129;Moldova;EU;MDA
Donduşeni;48.2394;27.6056;Moldova;EU;MDA
Briceni;48.3629;27.0779;Moldova;EU;MDA
Ialoveni;46.9435;28.7823;Moldova;EU;MDA
Bălți;47.7591;27.9053;Moldova;EU;MDA
Criuleni;47.2131;29.1593;Moldova;EU;MDA
Bender;46.8316;29.4777;Moldova;EU;MDA
Anenii Noi;46.8784;29.2348;Moldova;EU;MDA
Cahul;45.9079;28.1944;Moldova;EU;MDA
Chișinău;47.005;28.8577;Moldova;EU;MDA
Straşeni;47.1422;28.6077;Moldova;EU;MDA
Tiraspol;46.8531;29.64;Moldova;EU;MDA
Teleneşti;47.5011;28.3654;Moldova;EU;MDA
Taraclia;45.9027;28.6682;Moldova;EU;MDA
Dubăsari;47.2631;29.1608;Moldova;EU;MDA
Cocieri;47.3087;29.1101;Moldova;EU;MDA
Călăraşi;47.2556;28.3099;Moldova;EU;MDA
Glodeni;47.7751;27.5189;Moldova;EU;MDA
Hînceşti;46.8305;28.5906;Moldova;EU;MDA
Nisporeni;47.0816;28.1714;Moldova;EU;MDA
Soroca;48.1566;28.2849;Moldova;EU;MDA
Ungheni;47.2108;27.8005;Moldova;EU;MDA
Berane;42.8425;19.8733;Montenegro;EU;MNE
Plav;42.5969;19.9456;Montenegro;EU;MNE
Andrijevica;42.7339;19.7919;Montenegro;EU;MNE
Petnjica;42.9089;19.9644;Montenegro;EU;MNE
Gusinje;42.5619;19.8339;Montenegro;EU;MNE
Kolašin;42.8242;19.5225;Montenegro;EU;MNE
Podgorica;42.466;19.2663;Montenegro;EU;MNE
Bijelo Polje;43.0292;19.7456;Montenegro;EU;MNE
Bar;42.0931;19.1003;Montenegro;EU;MNE
Budva;42.2864;18.84;Montenegro;EU;MNE
Cetinje;42.3922;18.9225;Montenegro;EU;MNE
Danilovgrad;42.5472;19.1053;Montenegro;EU;MNE
Herceg-Novi;42.4531;18.5375;Montenegro;EU;MNE
Kotor;42.4258;18.7719;Montenegro;EU;MNE
Mojkovac;42.9639;19.5825;Montenegro;EU;MNE
Nikšić;42.775;18.9583;Montenegro;EU;MNE
Plužine;43.1528;18.8394;Montenegro;EU;MNE
Pljevlja;43.3522;19.3542;Montenegro;EU;MNE
Rožaje;42.8439;20.1683;Montenegro;EU;MNE
Šavnik;42.9564;19.0967;Montenegro;EU;MNE
Tivat;42.4364;18.6961;Montenegro;EU;MNE
Ulcinj;41.9283;19.2064;Montenegro;EU;MNE
Žabljak;43.1547;19.1219;Montenegro;EU;MNE
Marigot;18.0706;-63.0847;Saint Martin;NA;MAF
Antananarivo;-18.9166;47.5166;Madagascar;AF;MDG
Toamasina;-18.1818;49.405;Madagascar;AF;MDG
Antalaha;-14.8833;50.2833;Madagascar;AF;MDG
Maroantsetra;-15.4333;49.7333;Madagascar;AF;MDG
Mandritsara;-15.8328;48.8166;Madagascar;AF;MDG
Besalampy;-16.7495;44.4833;Madagascar;AF;MDG
Marovoay;-16.0995;46.6333;Madagascar;AF;MDG
Andoany;-13.4;48.2666;Madagascar;AF;MDG
Mahajanga;-15.67;46.345;Madagascar;AF;MDG
Ambanja;-13.6829;48.45;Madagascar;AF;MDG
Antsiranana;-12.2765;49.3115;Madagascar;AF;MDG
Miandrivazo;-19.5162;45.4666;Madagascar;AF;MDG
Mananjary;-21.2167;48.3333;Madagascar;AF;MDG
Morombe;-21.7391;43.3657;Madagascar;AF;MDG
Toliara;-23.3568;43.69;Madagascar;AF;MDG
Manja;-21.4329;44.3333;Madagascar;AF;MDG
Fianarantsoa;-21.4333;47.0833;Madagascar;AF;MDG
Androka;-25.0219;44.0749;Madagascar;AF;MDG
Bekiy;-24.2162;45.3166;Madagascar;AF;MDG
Antsirabe;-19.85;47.0333;Madagascar;AF;MDG
Antsohihy;-14.8661;47.9834;Madagascar;AF;MDG
Maintirano;-18.0666;44.0167;Madagascar;AF;MDG
Ambatondrazaka;-17.8329;48.4167;Madagascar;AF;MDG
Farafangana;-22.8166;47.8332;Madagascar;AF;MDG
Ihosy;-22.3996;46.1167;Madagascar;AF;MDG
Morondava;-20.2833;44.2833;Madagascar;AF;MDG
Tôlanaro;-25.0268;46.99;Madagascar;AF;MDG
Sambava;-14.2662;50.1666;Madagascar;AF;MDG
Majuro;7.103;171.38;Marshall Islands;OC;MHL
Vevčani;41.2406;20.5933;Macedonia;EU;MKD
Kočani;41.9164;22.4128;Macedonia;EU;MKD
Staro Nagoričane;42.1981;21.8286;Macedonia;EU;MKD
Radoviš;41.6383;22.4647;Macedonia;EU;MKD
Sopište;41.9547;21.4275;Macedonia;EU;MKD
Petrovec;41.9389;21.615;Macedonia;EU;MKD
Bosilovo;41.4406;22.7278;Macedonia;EU;MKD
Zrnovci;41.8542;22.4444;Macedonia;EU;MKD
Gradsko;41.5775;21.9428;Macedonia;EU;MKD
Lipkovo;42.1564;21.5853;Macedonia;EU;MKD
Lozovo;41.7839;21.9056;Macedonia;EU;MKD
Plasnica;41.4672;21.1231;Macedonia;EU;MKD
Aračinovo;42.0264;21.5619;Macedonia;EU;MKD
Studeničani;41.9158;21.5306;Macedonia;EU;MKD
Resen;41.0893;21.0109;Macedonia;EU;MKD
Bogovinje;41.9236;20.9136;Macedonia;EU;MKD
Vinica;41.8828;22.5092;Macedonia;EU;MKD
Belčišta;41.3028;20.8303;Macedonia;EU;MKD
Mogila;41.1083;21.3786;Macedonia;EU;MKD
Veles;41.7156;21.7756;Macedonia;EU;MKD
Kavadarci;41.4331;22.0119;Macedonia;EU;MKD
Kumanovo;42.1322;21.7144;Macedonia;EU;MKD
Ohrid;41.1172;20.8019;Macedonia;EU;MKD
Strumica;41.4375;22.6433;Macedonia;EU;MKD
Makedonski Brod;41.5136;21.2153;Macedonia;EU;MKD
Rostuša;41.61;20.6;Macedonia;EU;MKD
Struga;41.178;20.6778;Macedonia;EU;MKD
Čučer-Sandevo;42.102;21.3846;Macedonia;EU;MKD
Novo Selo;41.4149;22.8816;Macedonia;EU;MKD
Zelenikovo;41.8841;21.5885;Macedonia;EU;MKD
Star Dojran;41.1865;22.7203;Macedonia;EU;MKD
Skopje;42.0;21.4335;Macedonia;EU;MKD
Štip;41.7423;22.1979;Macedonia;EU;MKD
Makedonska Kamenica;42.0208;22.5876;Macedonia;EU;MKD
Ilinden;41.9945;21.58;Macedonia;EU;MKD
Demir Hisar;41.221;21.203;Macedonia;EU;MKD
Želino;41.9825;21.0624;Macedonia;EU;MKD
Prilep;41.3451;21.555;Macedonia;EU;MKD
Bitola;41.0391;21.3395;Macedonia;EU;MKD
Krivogaštani;41.3369;21.3311;Macedonia;EU;MKD
Kruševo;41.3694;21.2483;Macedonia;EU;MKD
Vasilevo;41.4741;22.643;Macedonia;EU;MKD
Gostivar;41.796;20.9082;Macedonia;EU;MKD
Vrapčište;41.8344;20.8856;Macedonia;EU;MKD
Novaci;41.042;21.4587;Macedonia;EU;MKD
Čaška;41.6487;21.6922;Macedonia;EU;MKD
Kratovo;42.0784;22.1807;Macedonia;EU;MKD
Probištip;42.0019;22.1728;Macedonia;EU;MKD
Debar;41.5244;20.5242;Macedonia;EU;MKD
Centar Župa;41.4788;20.5586;Macedonia;EU;MKD
Rosoman;41.5167;21.9458;Macedonia;EU;MKD
Jegunovce;42.0724;21.1237;Macedonia;EU;MKD
Demir Kapija;41.4061;22.2463;Macedonia;EU;MKD
Negotino;41.4846;22.0906;Macedonia;EU;MKD
Konče;41.4951;22.3836;Macedonia;EU;MKD
Dolneni;41.4258;21.454;Macedonia;EU;MKD
Sveti Nikole;41.8667;21.9411;Macedonia;EU;MKD
Valandovo;41.3174;22.56;Macedonia;EU;MKD
Kičevo;41.5127;20.9589;Macedonia;EU;MKD
Delčevo;41.9654;22.7763;Macedonia;EU;MKD
Tetovo;42.0092;20.9701;Macedonia;EU;MKD
Češinovo;41.8715;22.2896;Macedonia;EU;MKD
Karbinci;41.8176;22.2353;Macedonia;EU;MKD
Tearce;42.0767;21.0531;Macedonia;EU;MKD
Kriva Palanka;42.2009;22.3324;Macedonia;EU;MKD
Rankovce;42.1686;22.1166;Macedonia;EU;MKD
Pehčevo;41.7623;22.8892;Macedonia;EU;MKD
Gevgelija;41.1417;22.5014;Macedonia;EU;MKD
Bogdanci;41.2031;22.5756;Macedonia;EU;MKD
Berovo;41.7031;22.8578;Macedonia;EU;MKD
Brvenica;41.9672;20.9808;Macedonia;EU;MKD
Aguelhok;19.4549;0.8564;Mali;AF;MLI
Bamako;12.65;-8.0;Mali;AF;MLI
Kidal;18.4411;1.4078;Mali;AF;MLI
Bourem;16.9004;-0.35;Mali;AF;MLI
Mopti;14.49;-4.18;Mali;AF;MLI
Gao;16.2666;-0.05;Mali;AF;MLI
Satadougou;12.617;-11.4066;Mali;AF;MLI
Koulikoro;12.8833;-7.55;Mali;AF;MLI
Sikasso;11.3204;-5.68;Mali;AF;MLI
Araouane;18.9;-3.53;Mali;AF;MLI
Ségou;13.44;-6.26;Mali;AF;MLI
Timbuktu;16.7666;-3.0166;Mali;AF;MLI
Markala;13.6704;-6.07;Mali;AF;MLI
Taoudenni;22.6666;-3.9834;Mali;AF;MLI
Kayes;14.45;-11.44;Mali;AF;MLI
Sokolo;14.7337;-6.1333;Mali;AF;MLI
Kita;13.0504;-9.4833;Mali;AF;MLI
Nara;15.18;-7.28;Mali;AF;MLI
Kati;12.7504;-8.08;Mali;AF;MLI
Kangaba;11.9404;-8.44;Mali;AF;MLI
San;13.3004;-4.9;Mali;AF;MLI
Bougouni;11.4204;-7.49;Mali;AF;MLI
Koutiala;12.3904;-5.47;Mali;AF;MLI
Djenné;13.9;-4.55;Mali;AF;MLI
Yélimané;15.1337;-10.5666;Mali;AF;MLI
Bafoulabé;13.8004;-10.82;Mali;AF;MLI
Nioro du Sahel;15.2304;-9.59;Mali;AF;MLI
Goundam;16.417;-3.6666;Mali;AF;MLI
Ménaka;15.9167;2.4;Mali;AF;MLI
Tessalit;20.2014;1.0888;Mali;AF;MLI
Banamba;13.5504;-7.45;Mali;AF;MLI
Rangoon;16.7834;96.1667;Burma;AS;MMR
Allanmyo;19.3783;95.2279;Burma;AS;MMR
Mudon;16.2618;97.7215;Burma;AS;MMR
Mawlamyine;16.5004;97.67;Burma;AS;MMR
Phyarpon;16.2933;95.6829;Burma;AS;MMR
Labutta;16.1619;94.7014;Burma;AS;MMR
Dawei;14.098;98.195;Burma;AS;MMR
Myeik;12.4541;98.6115;Burma;AS;MMR
Ye;15.2533;97.8679;Burma;AS;MMR
Namtu;23.0837;97.4;Burma;AS;MMR
Hinthada;17.6483;95.4679;Burma;AS;MMR
Thongwa;16.7547;96.5193;Burma;AS;MMR
Bago;17.32;96.515;Burma;AS;MMR
Pathein;16.7704;94.75;Burma;AS;MMR
Yandoon;17.0433;95.6429;Burma;AS;MMR
Wakema;16.6133;95.1829;Burma;AS;MMR
Pyay;18.8165;95.2114;Burma;AS;MMR
Chauk;20.9085;94.823;Burma;AS;MMR
Myitkyina;25.3596;97.3928;Burma;AS;MMR
Monywa;22.105;95.15;Burma;AS;MMR
Naypyidaw;19.7666;96.1186;Burma;AS;MMR
Loikaw;19.665;97.206;Burma;AS;MMR
Yaynangyoung;20.4615;94.881;Burma;AS;MMR
Kyaukphyu;19.429;93.5494;Burma;AS;MMR
Magway;20.1445;94.9196;Burma;AS;MMR
Shwebo;22.5783;95.6929;Burma;AS;MMR
Sagaing;21.88;95.962;Burma;AS;MMR
Myingyan;21.4618;95.3914;Burma;AS;MMR
Pakokku;21.332;95.0866;Burma;AS;MMR
Mandalay;21.97;96.085;Burma;AS;MMR
Taunggyi;20.782;97.038;Burma;AS;MMR
Pyu;18.4779;96.4379;Burma;AS;MMR
Taungoo;18.9483;96.4179;Burma;AS;MMR
Letpadan;17.7819;95.7415;Burma;AS;MMR
Sittwe;20.14;92.88;Burma;AS;MMR
Pa-an;16.85;97.6167;Burma;AS;MMR
Hakha;22.65;93.6167;Burma;AS;MMR
Olgiy;48.9337;89.95;Mongolia;AS;MNG
Mandalgovi;45.75;106.266;Mongolia;AS;MNG
Ulaanbaatar;47.9167;106.9166;Mongolia;AS;MNG
Mörön;49.6453;100.1544;Mongolia;AS;MNG
Darhan;49.6167;106.35;Mongolia;AS;MNG
Erdenet;49.0533;104.1183;Mongolia;AS;MNG
Uliastay;47.75;96.8167;Mongolia;AS;MNG
Choyr;46.3611;108.3611;Mongolia;AS;MNG
Altay;46.3722;96.2583;Mongolia;AS;MNG
Buyant-Uhaa;44.8666;110.15;Mongolia;AS;MNG
Choybalsan;48.0666;114.506;Mongolia;AS;MNG
Ulaangom;49.9833;92.0666;Mongolia;AS;MNG
Bulgan;48.8106;103.5317;Mongolia;AS;MNG
Arvayheer;46.25;102.7666;Mongolia;AS;MNG
Tsetserleg;47.4769;101.4502;Mongolia;AS;MNG
Bayankhongor;46.3;100.9833;Mongolia;AS;MNG
Darhan;49.4867;105.9228;Mongolia;AS;MNG
Dzuunharaa;48.8666;106.4666;Mongolia;AS;MNG
Dzuunmod;47.711;106.947;Mongolia;AS;MNG
Ondorhaan;47.3167;110.65;Mongolia;AS;MNG
Dalandzadgad;43.5708;104.425;Mongolia;AS;MNG
Ulaan-Uul;44.3337;111.2333;Mongolia;AS;MNG
Hodrogo;48.9664;96.7833;Mongolia;AS;MNG
Baruun Urt;46.7;113.2833;Mongolia;AS;MNG
Suchboatar;50.25;106.2;Mongolia;AS;MNG
Dund-Us;48.0166;91.6333;Mongolia;AS;MNG
Dalandzadgad;43.5836;104.4403;Mongolia;AS;MNG
Macau;22.203;113.545;Macau;AS;MAC
Fort-de-France;14.6104;-61.08;Martinique;NA;MTQ
Bogue;16.5904;-14.27;Mauritania;AF;MRT
Chegga;25.3804;-5.78;Mauritania;AF;MRT
Boutilimit;17.5504;-14.7;Mauritania;AF;MRT
Timbedra;16.2504;-8.1666;Mauritania;AF;MRT
Bir Mogrein;25.2333;-11.5833;Mauritania;AF;MRT
Fderik;22.679;-12.707;Mauritania;AF;MRT
Sélibaby;15.167;-12.1833;Mauritania;AF;MRT
Aleg;17.058;-13.909;Mauritania;AF;MRT
Akjoujt;19.747;-14.391;Mauritania;AF;MRT
Kiffa;16.62;-11.4;Mauritania;AF;MRT
Nema;16.6171;-7.25;Mauritania;AF;MRT
Nouadhibou;20.9;-17.056;Mauritania;AF;MRT
Rosso;16.524;-15.8127;Mauritania;AF;MRT
Tidjikdja;18.55;-11.4166;Mauritania;AF;MRT
Atar;20.5166;-13.05;Mauritania;AF;MRT
Kaédi;16.1503;-13.5037;Mauritania;AF;MRT
Zouirat;22.7304;-12.4833;Mauritania;AF;MRT
Arafat;18.0583;-15.9621;Mauritania;AF;MRT
Dar Naim;18.0973;-15.9327;Mauritania;AF;MRT
Tevragh Zeina;18.0989;-15.9885;Mauritania;AF;MRT
Nouakchott;18.0864;-15.9753;Mauritania;AF;MRT
Ayoun el Atrous;16.6666;-9.6167;Mauritania;AF;MRT
Plymouth;16.7;-62.2167;Montserrat;NA;MSR
Birżebbuġa;35.8258;14.5269;Malta;EU;MLT
Marsaskala;35.8669;14.5619;Malta;EU;MLT
Marsaxlokk;35.8419;14.5431;Malta;EU;MLT
Kirkop;35.8422;14.4853;Malta;EU;MLT
Pietà;35.8947;14.495;Malta;EU;MLT
Żejtun;35.8558;14.5331;Malta;EU;MLT
Attard;35.8897;14.4425;Malta;EU;MLT
Pembroke;35.9306;14.4764;Malta;EU;MLT
Żebbuġ;35.8719;14.4411;Malta;EU;MLT
Ta’ Xbiex;35.8992;14.4944;Malta;EU;MLT
Sliema;35.9125;14.5019;Malta;EU;MLT
San Lawrenz;36.0556;14.2036;Malta;EU;MLT
Imqabba;35.8461;14.4672;Malta;EU;MLT
Imdina;35.8869;14.4025;Malta;EU;MLT
Qala;36.0361;14.3094;Malta;EU;MLT
Imtarfa;35.8933;14.3989;Malta;EU;MLT
Żurrieq;35.8311;14.4742;Malta;EU;MLT
Gudja;35.8492;14.5031;Malta;EU;MLT
Sannat;36.0244;14.2428;Malta;EU;MLT
Valletta;35.8997;14.5147;Malta;EU;MLT
Żabbar;35.8761;14.535;Malta;EU;MLT
Luqa;35.8589;14.4886;Malta;EU;MLT
Qormi;35.8783;14.4719;Malta;EU;MLT
Imġarr;35.9206;14.3664;Malta;EU;MLT
Saint Paul’s Bay;35.9483;14.4006;Malta;EU;MLT
Qrendi;35.8347;14.4583;Malta;EU;MLT
Munxar;36.03;14.2333;Malta;EU;MLT
Ħamrun;35.8847;14.4844;Malta;EU;MLT
Naxxar;35.9136;14.4436;Malta;EU;MLT
Għaxaq;35.8489;14.5167;Malta;EU;MLT
Għasri;36.0578;14.2264;Malta;EU;MLT
Victoria;36.0444;14.2397;Malta;EU;MLT
Iklin;35.9092;14.4522;Malta;EU;MLT
Għargħur;35.9242;14.4519;Malta;EU;MLT
Dingli;35.8614;14.3822;Malta;EU;MLT
Siġġiewi;35.8556;14.4364;Malta;EU;MLT
Xewkija;36.0328;14.2581;Malta;EU;MLT
Lija;35.9006;14.4464;Malta;EU;MLT
Safi;35.8331;14.4847;Malta;EU;MLT
Senglea;35.8875;14.5169;Malta;EU;MLT
Xagħra;36.05;14.2644;Malta;EU;MLT
Xgħajra;35.8856;14.5475;Malta;EU;MLT
Żebbuġ;36.0722;14.2358;Malta;EU;MLT
Gżira;35.9058;14.4881;Malta;EU;MLT
Imsida;35.8925;14.4828;Malta;EU;MLT
Kalkara;35.8892;14.5328;Malta;EU;MLT
Kerċem;36.0419;14.2267;Malta;EU;MLT
Mellieħa;35.9564;14.3622;Malta;EU;MLT
Mosta;35.9092;14.4256;Malta;EU;MLT
Nadur;36.0378;14.2942;Malta;EU;MLT
Paola;35.8731;14.4989;Malta;EU;MLT
Rabat;35.8822;14.3981;Malta;EU;MLT
Marsa;35.8792;14.4953;Malta;EU;MLT
San Ġiljan;35.9197;14.4844;Malta;EU;MLT
San Ġwann;35.9056;14.4761;Malta;EU;MLT
Santa Luċija;36.0431;14.2172;Malta;EU;MLT
Santa Venera;35.8908;14.4742;Malta;EU;MLT
Swieqi;35.9225;14.48;Malta;EU;MLT
Tarxien;35.8658;14.515;Malta;EU;MLT
Balzan;35.9003;14.455;Malta;EU;MLT
Vittoriosa;35.8922;14.5183;Malta;EU;MLT
Birkirkara;35.8972;14.4611;Malta;EU;MLT
Cospicua;35.8856;14.5275;Malta;EU;MLT
Fgura;35.8703;14.5133;Malta;EU;MLT
Floriana;35.8958;14.5083;Malta;EU;MLT
Fontana;36.0375;14.2361;Malta;EU;MLT
Għajnsielem;36.0264;14.285;Malta;EU;MLT
Għarb;36.06;14.2089;Malta;EU;MLT
Port Louis;-20.1666;57.5;Mauritius;AF;MUS
Curepipe;-20.3162;57.5166;Mauritius;AF;MUS
Malé;4.1667;73.4999;Maldives;AS;MDV
Eydhafushi;5.1038;73.0699;Maldives;AS;MDV
Felidhoo;3.4718;73.547;Maldives;AS;MDV
Funadhoo;6.1509;73.2901;Maldives;AS;MDV
Hithadhoo;-0.6;73.0833;Maldives;AS;MDV
Kudahuvadhoo;2.6717;72.8936;Maldives;AS;MDV
Kulhudhuffushi;6.6223;73.0702;Maldives;AS;MDV
Mahibadhoo;3.7571;72.9689;Maldives;AS;MDV
Manadhoo;5.7669;73.4136;Maldives;AS;MDV
Muli;2.9217;73.5811;Maldives;AS;MDV
Naifaru;5.4442;73.3662;Maldives;AS;MDV
Thinadhoo;0.5303;72.9967;Maldives;AS;MDV
Un’goofaaru;5.6681;73.0302;Maldives;AS;MDV
Veymandoo;2.1878;73.095;Maldives;AS;MDV
Fonadhoo;1.8342;73.5031;Maldives;AS;MDV
Rasdhoo;4.2631;72.9919;Maldives;AS;MDV
Thulusdhoo;4.3742;73.6517;Maldives;AS;MDV
Dhihdhoo;6.8874;73.114;Maldives;AS;MDV
Foammulah;-0.3;73.4256;Maldives;AS;MDV
Viligili;0.7539;73.4353;Maldives;AS;MDV
Nilandhoo;3.0567;72.89;Maldives;AS;MDV
Thyolo;-16.0703;35.1471;Malawi;AF;MWI
Mwanza;-15.6167;34.5167;Malawi;AF;MWI
Chiradzulu;-15.7;35.1833;Malawi;AF;MWI
Karonga;-9.9329;33.9333;Malawi;AF;MWI
Neno;-15.3981;34.6534;Malawi;AF;MWI
Zomba;-15.39;35.31;Malawi;AF;MWI
Chikwawa;-16.042;34.8019;Malawi;AF;MWI
Mulanje;-16.0333;35.5;Malawi;AF;MWI
Blantyre;-15.79;34.9899;Malawi;AF;MWI
Chiromo;-16.55;35.1332;Malawi;AF;MWI
Phalombe;-15.8064;35.6507;Malawi;AF;MWI
Nsanje;-16.9167;35.2667;Malawi;AF;MWI
Nkhata Bay;-11.5996;34.3;Malawi;AF;MWI
Rumphi;-11.0195;33.8546;Malawi;AF;MWI
Chitipa;-9.7162;33.2666;Malawi;AF;MWI
Mzuzu;-11.46;34.02;Malawi;AF;MWI
Mzimba;-11.9;33.6;Malawi;AF;MWI
Ntchisi;-13.3753;34.0036;Malawi;AF;MWI
Dowa;-13.6532;33.9385;Malawi;AF;MWI
Mchinji;-13.8;32.9;Malawi;AF;MWI
Nkhotakota;-12.9163;34.3;Malawi;AF;MWI
Kasungu;-13.0364;33.4822;Malawi;AF;MWI
Ntcheu;-14.8167;34.6333;Malawi;AF;MWI
Dedza;-14.3667;34.3333;Malawi;AF;MWI
Salima;-13.7829;34.4333;Malawi;AF;MWI
Lilongwe;-13.9833;33.7833;Malawi;AF;MWI
Mangochi;-14.4596;35.27;Malawi;AF;MWI
Balaka;-14.9889;34.9591;Malawi;AF;MWI
Machinga;-14.9667;35.5167;Malawi;AF;MWI
Nacozari de García;30.42;-109.65;Mexico;NA;MEX
Nueva Rosita;27.95;-101.22;Mexico;NA;MEX
San Felipe;31.0241;-114.8496;Mexico;NA;MEX
Zacatecas;22.7704;-102.58;Mexico;NA;MEX
Irapuato;20.67;-101.5;Mexico;NA;MEX
Vicente Guerrero;30.7641;-116.0093;Mexico;NA;MEX
San Quintín;30.4837;-115.95;Mexico;NA;MEX
Chetumal;18.5;-88.3;Mexico;NA;MEX
Esperanza;27.58;-109.93;Mexico;NA;MEX
Izamal;20.9304;-89.0201;Mexico;NA;MEX
Ticul;20.4004;-89.53;Mexico;NA;MEX
Villahermosa;18.0;-92.9;Mexico;NA;MEX
Mazatlán;23.2211;-106.42;Mexico;NA;MEX
Ciudad Victoria;23.72;-99.13;Mexico;NA;MEX
Mexicali;32.65;-115.48;Mexico;NA;MEX
Aguascalientes;21.8795;-102.2904;Mexico;NA;MEX
Chihuahua;28.645;-106.085;Mexico;NA;MEX
Guanajuato;21.0204;-101.28;Mexico;NA;MEX
Chilpancingo;17.55;-99.5;Mexico;NA;MEX
Pachuca;20.1704;-98.73;Mexico;NA;MEX
Guadalajara;20.67;-103.33;Mexico;NA;MEX
Cuernavaca;18.9211;-99.24;Mexico;NA;MEX
Monterrey;25.67;-100.33;Mexico;NA;MEX
Lázaro Cárdenas;17.9587;-102.2;Mexico;NA;MEX
Miahuatlán;16.33;-96.6;Mexico;NA;MEX
Mitla;16.917;-96.4;Mexico;NA;MEX
Valladolid;20.6704;-88.2;Mexico;NA;MEX
Ciudad Constitución;25.04;-111.66;Mexico;NA;MEX
Villa Unión;23.2;-106.23;Mexico;NA;MEX
Eldorado;24.3305;-107.37;Mexico;NA;MEX
Tekax;20.2;-89.28;Mexico;NA;MEX
Montemorelos;25.19;-99.84;Mexico;NA;MEX
Xalapa;19.53;-96.92;Mexico;NA;MEX
Teziutlán;19.8204;-97.36;Mexico;NA;MEX
Motul;21.1;-89.28;Mexico;NA;MEX
Mérida;20.9666;-89.6166;Mexico;NA;MEX
Guerrero Negro;27.9904;-114.17;Mexico;NA;MEX
Saltillo;25.42;-101.005;Mexico;NA;MEX
Punta Prieta;28.9337;-114.1666;Mexico;NA;MEX
Salina Cruz;16.1671;-95.2;Mexico;NA;MEX
Durango;24.0311;-104.67;Mexico;NA;MEX
Acatlan;18.2;-98.05;Mexico;NA;MEX
Tepic;21.5054;-104.88;Mexico;NA;MEX
Tecuala;22.4004;-105.46;Mexico;NA;MEX
Ayutla;16.9004;-99.22;Mexico;NA;MEX
Huajuapan de León;17.8104;-97.79;Mexico;NA;MEX
Pochutla;15.7304;-96.47;Mexico;NA;MEX
Colima;19.23;-103.72;Mexico;NA;MEX
Autlan;19.77;-104.37;Mexico;NA;MEX
Coalcoman;18.7804;-103.15;Mexico;NA;MEX
Apatzingán;19.08;-102.35;Mexico;NA;MEX
Halachó;20.48;-90.08;Mexico;NA;MEX
Peto;20.13;-88.92;Mexico;NA;MEX
Papasquiaro;24.8304;-105.34;Mexico;NA;MEX
Puerto Escondido;15.8592;-97.0659;Mexico;NA;MEX
Hermosillo;29.0989;-110.9541;Mexico;NA;MEX
Juchitan;16.43;-95.02;Mexico;NA;MEX
San Luis Potosí;22.17;-101.0;Mexico;NA;MEX
Culiacán;24.83;-107.38;Mexico;NA;MEX
Uruapan;19.4204;-102.07;Mexico;NA;MEX
Tehuantepec;16.33;-95.23;Mexico;NA;MEX
Salamanca;20.5704;-101.2;Mexico;NA;MEX
Mexico City;19.4424;-99.131;Mexico;NA;MEX
Zamora;19.9804;-102.28;Mexico;NA;MEX
Tlaxiaco;17.2704;-97.68;Mexico;NA;MEX
Petatlán;17.5204;-101.27;Mexico;NA;MEX
La Cruz;23.9204;-106.9;Mexico;NA;MEX
Allende;28.33;-100.85;Mexico;NA;MEX
Agua Prieta;31.3223;-109.563;Mexico;NA;MEX
Piedras Negras;28.7076;-100.5317;Mexico;NA;MEX
Reynosa;26.08;-98.3;Mexico;NA;MEX
Ojinaga;29.5404;-104.41;Mexico;NA;MEX
La Paz;24.14;-110.32;Mexico;NA;MEX
Tapachula;14.9;-92.27;Mexico;NA;MEX
Escuintla;15.33;-92.63;Mexico;NA;MEX
Atlixco;18.9;-98.45;Mexico;NA;MEX
Orizaba;18.85;-97.13;Mexico;NA;MEX
Taxco;18.5704;-99.62;Mexico;NA;MEX
Iguala;18.37;-99.54;Mexico;NA;MEX
Cabo San Lucas;22.8928;-109.9045;Mexico;NA;MEX
Villanueva;22.35;-102.88;Mexico;NA;MEX
Tecpan;17.25;-100.68;Mexico;NA;MEX
Atoyac;17.2;-100.43;Mexico;NA;MEX
Jaltipan;17.94;-94.74;Mexico;NA;MEX
La Barca;20.2804;-102.56;Mexico;NA;MEX
Querétaro;20.63;-100.38;Mexico;NA;MEX
León;21.15;-101.7;Mexico;NA;MEX
Pijijiapan;15.6904;-93.22;Mexico;NA;MEX
Campeche;19.83;-90.5;Mexico;NA;MEX
Toluca;19.3304;-99.67;Mexico;NA;MEX
Tlaxcala;19.32;-98.23;Mexico;NA;MEX
Oaxaca;17.0827;-96.6699;Mexico;NA;MEX
Puebla;19.05;-98.2;Mexico;NA;MEX
Tuxtla Gutiérrez;16.75;-93.15;Mexico;NA;MEX
Lagos de Moreno;21.3704;-101.93;Mexico;NA;MEX
Progreso;21.2833;-89.6666;Mexico;NA;MEX
Tuxpam;20.9604;-97.41;Mexico;NA;MEX
Balancán;17.8;-91.53;Mexico;NA;MEX
Tizimín;21.1304;-88.15;Mexico;NA;MEX
Los Mochis;25.79;-109.0;Mexico;NA;MEX
Altata;24.636;-107.9162;Mexico;NA;MEX
Navajoa;27.0819;-109.4546;Mexico;NA;MEX
Santa Barbara;26.8004;-105.82;Mexico;NA;MEX
Ciudad Hidalgo;19.68;-100.57;Mexico;NA;MEX
Parras;25.4204;-102.1799;Mexico;NA;MEX
Hidalgo del Parral;26.9334;-105.6666;Mexico;NA;MEX
Delicias;28.2;-105.5;Mexico;NA;MEX
Ensenada;31.87;-116.62;Mexico;NA;MEX
Linares;24.8604;-99.57;Mexico;NA;MEX
San Juan del Río;20.38;-100.0;Mexico;NA;MEX
Minatitlán;17.9805;-94.53;Mexico;NA;MEX
Villa Ahumada;30.6104;-106.51;Mexico;NA;MEX
Tehuacan;18.4504;-97.38;Mexico;NA;MEX
Ciudad del Carmen;18.6537;-91.8245;Mexico;NA;MEX
Morelia;19.7334;-101.1895;Mexico;NA;MEX
Escuinapa;22.8504;-105.8;Mexico;NA;MEX
Nezahualcoyotl;19.41;-99.03;Mexico;NA;MEX
Gómez Palacio;25.5701;-103.5;Mexico;NA;MEX
Paraíso;18.4;-93.23;Mexico;NA;MEX
Frontera;18.5804;-92.65;Mexico;NA;MEX
Tenosique;17.4804;-91.43;Mexico;NA;MEX
Tecoman;18.9204;-103.88;Mexico;NA;MEX
Aldama;22.9204;-98.07;Mexico;NA;MEX
Loreto;26.0133;-111.3517;Mexico;NA;MEX
Santa Rosalía;27.3171;-112.2834;Mexico;NA;MEX
El Fuerte;26.4204;-108.62;Mexico;NA;MEX
Guasave;25.5705;-108.47;Mexico;NA;MEX
Manzanillo;19.0496;-104.3231;Mexico;NA;MEX
Celaya;20.53;-100.8;Mexico;NA;MEX
San Pedro de las Colonias;25.7592;-102.9827;Mexico;NA;MEX
Monclova;26.9;-101.42;Mexico;NA;MEX
Torreón;25.5701;-103.42;Mexico;NA;MEX
Nogales;31.305;-110.945;Mexico;NA;MEX
Rio Verde;21.93;-99.98;Mexico;NA;MEX
Tamuín;21.9804;-98.75;Mexico;NA;MEX
Tamazunchale;21.2704;-98.78;Mexico;NA;MEX
Ciudad Valles;21.98;-99.02;Mexico;NA;MEX
Cardenas;22.0;-99.67;Mexico;NA;MEX
Guamúchil;25.4704;-108.09;Mexico;NA;MEX
Tijuana;32.5;-117.08;Mexico;NA;MEX
Cozumel;20.51;-86.95;Mexico;NA;MEX
Isla Mujeres;21.2084;-86.7115;Mexico;NA;MEX
Cancún;21.17;-86.83;Mexico;NA;MEX
Felipe Carrillo Puerto;19.5804;-88.05;Mexico;NA;MEX
Champotón;19.3504;-90.72;Mexico;NA;MEX
Cuencame;24.8704;-103.7;Mexico;NA;MEX
Canatlan;24.52;-104.78;Mexico;NA;MEX
Compostela;21.2304;-104.9;Mexico;NA;MEX
Santiago Ixcuintla;21.82;-105.22;Mexico;NA;MEX
Tuxpan;21.9304;-105.27;Mexico;NA;MEX
Matehuala;23.6604;-100.65;Mexico;NA;MEX
Fresnillo;23.1704;-102.86;Mexico;NA;MEX
Valparaíso;22.7704;-103.57;Mexico;NA;MEX
Sabinas Hidalgo;26.51;-100.18;Mexico;NA;MEX
Ascensión;31.1;-107.98;Mexico;NA;MEX
Ciudad Juárez;31.6904;-106.49;Mexico;NA;MEX
Juan Aldama;24.2904;-103.39;Mexico;NA;MEX
Caborca;30.7161;-112.1642;Mexico;NA;MEX
Magdalena;30.6166;-111.05;Mexico;NA;MEX
Mazatlán;29.0171;-110.1333;Mexico;NA;MEX
Puerto Vallarta;20.6771;-105.245;Mexico;NA;MEX
Zumpango;19.8104;-99.11;Mexico;NA;MEX
Nuevo Laredo;27.5;-99.55;Mexico;NA;MEX
Matamoros;25.88;-97.5;Mexico;NA;MEX
San Fernando;24.8504;-98.16;Mexico;NA;MEX
Ciudad Madero;22.3189;-97.8361;Mexico;NA;MEX
Tampico;22.3;-97.87;Mexico;NA;MEX
Ciudad Mante;22.7334;-98.95;Mexico;NA;MEX
Tula;23.0004;-99.72;Mexico;NA;MEX
Ciudad Guzman;19.7104;-103.46;Mexico;NA;MEX
Ciudad Camargo;27.6904;-105.1701;Mexico;NA;MEX
Cuauhtémoc;28.4257;-106.8696;Mexico;NA;MEX
Nuevo Casas Grandes;30.4185;-107.9119;Mexico;NA;MEX
Poza Rica de Hidalgo;20.5504;-97.47;Mexico;NA;MEX
Ometepec;16.6801;-98.42;Mexico;NA;MEX
Ciudad Altamirano;18.3204;-100.65;Mexico;NA;MEX
Huatabampo;26.8304;-109.63;Mexico;NA;MEX
Ciudad Obregon;27.4666;-109.925;Mexico;NA;MEX
Guaymas;27.93;-110.89;Mexico;NA;MEX
Pánuco;22.0604;-98.19;Mexico;NA;MEX
Cananea;30.9904;-110.3;Mexico;NA;MEX
Acapulco;16.85;-99.916;Mexico;NA;MEX
San Cristobal de Las Casas;16.75;-92.6334;Mexico;NA;MEX
Veracruz;19.1773;-96.16;Mexico;NA;MEX
Coatzacoalcos;18.1204;-94.42;Mexico;NA;MEX
Santiago Tuxtla;18.4704;-95.3;Mexico;NA;MEX
Córdoba;18.9204;-96.92;Mexico;NA;MEX
Nautla;20.2166;-96.7834;Mexico;NA;MEX
Sibu;2.303;111.843;Malaysia;AS;MYS
Shah Alam;3.0667;101.55;Malaysia;AS;MYS
Bintulu;3.1664;113.036;Malaysia;AS;MYS
Kuching;1.53;110.33;Malaysia;AS;MYS
Victoria;5.2767;115.2417;Malaysia;AS;MYS
Taiping;4.865;100.72;Malaysia;AS;MYS
Chukai;4.2332;103.4479;Malaysia;AS;MYS
Kuala Lumpur;3.1667;101.7;Malaysia;AS;MYS
Kangar;6.433;100.19;Malaysia;AS;MYS
Alor Setar;6.1133;100.3729;Malaysia;AS;MYS
George Town;5.4136;100.3294;Malaysia;AS;MYS
Butterworth;5.4171;100.4;Malaysia;AS;MYS
Sungai Petani;5.6497;100.4793;Malaysia;AS;MYS
Sandakan;5.843;118.108;Malaysia;AS;MYS
Lahad Datu;5.0464;118.336;Malaysia;AS;MYS
Kota Baharu;6.12;102.23;Malaysia;AS;MYS
Johor Bahru;1.48;103.73;Malaysia;AS;MYS
Keluang;2.0383;103.3179;Malaysia;AS;MYS
Kuala Terengganu;5.3304;103.12;Malaysia;AS;MYS
Ipoh;4.6;101.065;Malaysia;AS;MYS
Kuantan;3.83;103.32;Malaysia;AS;MYS
Kota Kinabalu;5.98;116.11;Malaysia;AS;MYS
Tawau;4.271;117.896;Malaysia;AS;MYS
Kuala Lipis;4.184;102.042;Malaysia;AS;MYS
Teluk Intan;4.0119;101.0314;Malaysia;AS;MYS
Malacca;2.2064;102.2465;Malaysia;AS;MYS
Muar;2.0337;102.5666;Malaysia;AS;MYS
Miri;4.3999;113.9845;Malaysia;AS;MYS
Seremban;2.7105;101.94;Malaysia;AS;MYS
Putrajaya;2.914;101.7019;Malaysia;AS;MYS
Raub;3.7927;101.8423;Malaysia;AS;MYS
Batu Pahat;1.8504;102.9333;Malaysia;AS;MYS
Kelang;3.0204;101.55;Malaysia;AS;MYS
Espungabera;-20.4501;32.77;Mozambique;AF;MOZ
Quelimane;-17.88;36.89;Mozambique;AF;MOZ
Nicuadala;-17.6077;36.8197;Mozambique;AF;MOZ
Mapai;-22.8427;31.9631;Mozambique;AF;MOZ
Mocimboa;-11.3196;40.35;Mozambique;AF;MOZ
Maxixe;-23.866;35.3886;Mozambique;AF;MOZ
Mocambique;-15.0399;40.6822;Mozambique;AF;MOZ
Nampula;-15.136;39.293;Mozambique;AF;MOZ
Massangena;-21.5373;32.9564;Mozambique;AF;MOZ
Quissico;-24.7257;34.766;Mozambique;AF;MOZ
Chiramba;-16.8921;34.6559;Mozambique;AF;MOZ
Xai-Xai;-25.04;33.64;Mozambique;AF;MOZ
Ligonha;-15.1757;37.74;Mozambique;AF;MOZ
Vilanculos;-21.9995;35.3166;Mozambique;AF;MOZ
Dondo;-19.6196;34.73;Mozambique;AF;MOZ
Macia;-25.0195;33.09;Mozambique;AF;MOZ
Moatize;-16.0995;33.95;Mozambique;AF;MOZ
Angoche;-16.23;39.91;Mozambique;AF;MOZ
Cuamba;-14.7896;36.54;Mozambique;AF;MOZ
Inhambane;-23.858;35.3398;Mozambique;AF;MOZ
Beira;-19.82;34.87;Mozambique;AF;MOZ
Lichinga;-13.3;35.24;Mozambique;AF;MOZ
Pemba;-12.983;40.5323;Mozambique;AF;MOZ
Panda;-24.0629;34.7303;Mozambique;AF;MOZ
Manica;-18.9696;32.88;Mozambique;AF;MOZ
Nacala;-14.5186;40.715;Mozambique;AF;MOZ
Montepuez;-13.1196;39.0;Mozambique;AF;MOZ
Maputo;-25.9553;32.5892;Mozambique;AF;MOZ
Mocuba;-16.8496;38.26;Mozambique;AF;MOZ
Marrupa;-13.1984;37.4995;Mozambique;AF;MOZ
Chimoio;-19.12;33.47;Mozambique;AF;MOZ
Tete;-16.17;33.58;Mozambique;AF;MOZ
Matola;-25.9696;32.46;Mozambique;AF;MOZ
Koné;-21.0667;164.8667;New Caledonia;OC;NCL
Wé;-20.9;167.2667;New Caledonia;OC;NCL
Nouméa;-22.2625;166.4443;New Caledonia;OC;NCL
Niamey;13.5167;2.1167;Niger;AF;NER
Maradi;13.4916;7.0964;Niger;AF;NER
Zinder;13.8;8.9833;Niger;AF;NER
Ayorou;14.7318;0.9195;Niger;AF;NER
Gaya;11.8882;3.4467;Niger;AF;NER
Arlit;18.82;7.33;Niger;AF;NER
Birni Nkonni;13.7904;5.2599;Niger;AF;NER
Madaoua;14.0762;5.9586;Niger;AF;NER
Tahoua;14.9;5.2599;Niger;AF;NER
Nguigmi;14.2532;13.1108;Niger;AF;NER
Dosso;13.05;3.2;Niger;AF;NER
Gouré;13.9874;10.27;Niger;AF;NER
Diffa;13.3171;12.6089;Niger;AF;NER
Tillabéri;14.212;1.4531;Niger;AF;NER
Djado;21.015;12.3075;Niger;AF;NER
Agadez;16.9959;7.9828;Niger;AF;NER
Kingston;-29.0569;167.9617;Norfolk Island;OC;NFK
Abuja;9.0833;7.5333;Nigeria;AF;NGA
Uyo;5.008;7.85;Nigeria;AF;NGA
Akure;7.2504;5.2;Nigeria;AF;NGA
Koko;11.4232;4.517;Nigeria;AF;NGA
Port Harcourt;4.81;7.01;Nigeria;AF;NGA
Gombe;10.2904;11.17;Nigeria;AF;NGA
Nsukka;6.867;7.3834;Nigeria;AF;NGA
Potiskum;11.7104;11.08;Nigeria;AF;NGA
Damaturu;11.749;11.966;Nigeria;AF;NGA
Wukari;7.8704;9.78;Nigeria;AF;NGA
Maiduguri;11.85;13.16;Nigeria;AF;NGA
Kontagora;10.4004;5.4699;Nigeria;AF;NGA
Jos;9.93;8.89;Nigeria;AF;NGA
Abakaliki;6.3249;8.1137;Nigeria;AF;NGA
Ife;7.4804;4.56;Nigeria;AF;NGA
Abeokuta;7.1604;3.35;Nigeria;AF;NGA
Ikeja;6.5965;3.3421;Nigeria;AF;NGA
Lagos;6.4433;3.3915;Nigeria;AF;NGA
Ijebu Ode;6.8204;3.92;Nigeria;AF;NGA
Iwo;7.63;4.18;Nigeria;AF;NGA
Oshogbo;7.7704;4.56;Nigeria;AF;NGA
Ilorin;8.49;4.55;Nigeria;AF;NGA
Gusau;12.1704;6.66;Nigeria;AF;NGA
Yenagoa;4.9267;6.2676;Nigeria;AF;NGA
Minna;9.62;6.55;Nigeria;AF;NGA
Ado Ekiti;7.6304;5.22;Nigeria;AF;NGA
Ibadan;7.38;3.93;Nigeria;AF;NGA
Iseyin;7.97;3.59;Nigeria;AF;NGA
Funtua;11.5204;7.32;Nigeria;AF;NGA
Katsina;12.9904;7.6;Nigeria;AF;NGA
Oyo;7.8504;3.93;Nigeria;AF;NGA
Ogbomosho;8.13;4.24;Nigeria;AF;NGA
Benin City;6.3405;5.62;Nigeria;AF;NGA
Keffi;8.849;7.8736;Nigeria;AF;NGA
Lafia;8.4904;8.52;Nigeria;AF;NGA
Ondo;7.0904;4.84;Nigeria;AF;NGA
Lokoja;7.8004;6.7399;Nigeria;AF;NGA
Sokoto;13.06;5.24;Nigeria;AF;NGA
Kaduna;10.52;7.44;Nigeria;AF;NGA
Kano;12.0;8.52;Nigeria;AF;NGA
Zaria;11.08;7.71;Nigeria;AF;NGA
Ikare;7.5304;5.76;Nigeria;AF;NGA
Owo;7.2004;5.59;Nigeria;AF;NGA
Dutse;11.7992;9.3503;Nigeria;AF;NGA
Idah;7.1104;6.7399;Nigeria;AF;NGA
Mubi;10.2703;13.27;Nigeria;AF;NGA
Orlu;5.7837;7.0333;Nigeria;AF;NGA
Bama;11.5204;13.69;Nigeria;AF;NGA
Bauchi;10.3104;9.84;Nigeria;AF;NGA
Makurdi;7.73;8.53;Nigeria;AF;NGA
Oturkpo;7.1904;8.13;Nigeria;AF;NGA
Onitsha;6.1404;6.78;Nigeria;AF;NGA
Awka;6.2104;7.07;Nigeria;AF;NGA
Enugu;6.45;7.5;Nigeria;AF;NGA
Biu;10.6204;12.19;Nigeria;AF;NGA
Owerri;5.493;7.026;Nigeria;AF;NGA
Calabar;4.9604;8.33;Nigeria;AF;NGA
Sapele;5.8904;5.68;Nigeria;AF;NGA
Opobo;4.5704;7.56;Nigeria;AF;NGA
Aba;5.1004;7.35;Nigeria;AF;NGA
Umuahia;5.532;7.486;Nigeria;AF;NGA
Warri;5.52;5.76;Nigeria;AF;NGA
Asaba;6.1985;6.7274;Nigeria;AF;NGA
Bida;9.0804;6.01;Nigeria;AF;NGA
Kumo;10.0457;11.2131;Nigeria;AF;NGA
Azare;11.6804;10.19;Nigeria;AF;NGA
Gashua;12.8705;11.04;Nigeria;AF;NGA
Yola;9.21;12.48;Nigeria;AF;NGA
Nguru;12.8804;10.45;Nigeria;AF;NGA
Jalingo;8.9004;11.36;Nigeria;AF;NGA
Numan;9.4604;12.04;Nigeria;AF;NGA
Birnin Kebbi;12.4504;4.1999;Nigeria;AF;NGA
Managua;12.153;-86.2685;Nicaragua;NA;NIC
San Carlos;11.2;-84.8333;Nicaragua;NA;NIC
Juigalpa;12.11;-85.38;Nicaragua;NA;NIC
Boaco;12.47;-85.66;Nicaragua;NA;NIC
Granada;11.9337;-85.95;Nicaragua;NA;NIC
Puerto Cabezas;14.0333;-83.3834;Nicaragua;NA;NIC
Jinotepe;11.846;-86.195;Nicaragua;NA;NIC
Jinotega;13.091;-86.0;Nicaragua;NA;NIC
León;12.4356;-86.8794;Nicaragua;NA;NIC
Estelí;13.09;-86.36;Nicaragua;NA;NIC
Somoto;13.476;-86.583;Nicaragua;NA;NIC
Chinandega;12.6304;-87.13;Nicaragua;NA;NIC
Ocotal;13.63;-86.473;Nicaragua;NA;NIC
Masaya;11.969;-86.095;Nicaragua;NA;NIC
Bluefields;12.0;-83.7649;Nicaragua;NA;NIC
Rivas;11.4404;-85.82;Nicaragua;NA;NIC
Matagalpa;12.9171;-85.9167;Nicaragua;NA;NIC
San Juan de Nicaragua;10.9204;-83.7;Nicaragua;NA;NIC
San Juan del Sur;11.25;-85.86;Nicaragua;NA;NIC
Maastricht;50.853;5.677;Netherlands;EU;NLD
Amsterdam;52.35;4.9166;Netherlands;EU;NLD
The Hague;52.08;4.27;Netherlands;EU;NLD
Haarlem;52.3804;4.63;Netherlands;EU;NLD
Groningen;53.2204;6.58;Netherlands;EU;NLD
Middelburg;51.502;3.61;Netherlands;EU;NLD
Lelystad;52.5176;5.474;Netherlands;EU;NLD
Arnhem;51.988;5.923;Netherlands;EU;NLD
Assen;53.0;6.55;Netherlands;EU;NLD
's-Hertogenbosch;51.6833;5.3167;Netherlands;EU;NLD
Zwolle;52.524;6.097;Netherlands;EU;NLD
Utrecht;52.1003;5.12;Netherlands;EU;NLD
Leeuwarden;53.2504;5.7834;Netherlands;EU;NLD
Rotterdam;51.92;4.48;Netherlands;EU;NLD
Eindhoven;51.43;5.5;Netherlands;EU;NLD
Tromsø;69.6351;18.992;Norway;EU;NOR
Molde;62.7483;7.1833;Norway;EU;NOR
Vossavangen;60.63;6.441;Norway;EU;NOR
Oslo;59.9167;10.75;Norway;EU;NOR
Lillehammer;61.1333;10.5;Norway;EU;NOR
Bærum;59.9135;11.3472;Norway;EU;NOR
Stavanger;58.97;5.68;Norway;EU;NOR
Hermansverk;61.1833;6.85;Norway;EU;NOR
Leikanger;61.1833;6.85;Norway;EU;NOR
Kristiansand;58.1666;8.0;Norway;EU;NOR
Bergen;60.391;5.3245;Norway;EU;NOR
Skien;59.2;9.6;Norway;EU;NOR
Arendal;58.4648;8.766;Norway;EU;NOR
Hamar;60.82;11.069;Norway;EU;NOR
Tønsberg;59.264;10.421;Norway;EU;NOR
Drammen;59.7572;10.1907;Norway;EU;NOR
Bodø;67.2468;14.399;Norway;EU;NOR
Haugesund;59.4119;5.2775;Norway;EU;NOR
Svolvær;68.2333;14.5667;Norway;EU;NOR
Ålesund;62.5454;6.388;Norway;EU;NOR
Harstad;68.7879;16.5156;Norway;EU;NOR
Finnsnes;69.2406;18.0086;Norway;EU;NOR
Alta;69.9666;23.2417;Norway;EU;NOR
Kirkenes;69.725;30.0516;Norway;EU;NOR
Sandnes;58.8454;5.69;Norway;EU;NOR
Gjøvik;60.8;10.7;Norway;EU;NOR
Mo i Rana;66.3166;14.1667;Norway;EU;NOR
Sarpsborg;59.2833;11.1167;Norway;EU;NOR
Moss;59.437;10.6692;Norway;EU;NOR
Vadsø;70.0966;29.7657;Norway;EU;NOR
Rørvik;64.868;11.2053;Norway;EU;NOR
Namsos;64.4833;11.5;Norway;EU;NOR
Trondheim;63.4167;10.4167;Norway;EU;NOR
Steinkjer;64.0171;11.5;Norway;EU;NOR
Narvik;68.3832;17.29;Norway;EU;NOR
Hammerfest;70.6613;23.688;Norway;EU;NOR
Jumla;29.25;82.2167;Nepal;AS;NPL
Salyan;28.35;82.1833;Nepal;AS;NPL
Kathmandu;27.7167;85.3166;Nepal;AS;NPL
Bhairawa;27.5333;83.3833;Nepal;AS;NPL
Pokhara;28.264;83.972;Nepal;AS;NPL
Hetauda;27.4167;85.0334;Nepal;AS;NPL
Dandeldhura;29.3;80.6;Nepal;AS;NPL
Baglung;28.2667;83.5833;Nepal;AS;NPL
Ramechhap;27.326;86.087;Nepal;AS;NPL
Lalitpur;27.6666;85.3333;Nepal;AS;NPL
Biratnagar;26.4837;87.2833;Nepal;AS;NPL
Rajbiraj;26.5333;86.7333;Nepal;AS;NPL
Bhimphedi;27.551;85.13;Nepal;AS;NPL
Ilam;26.908;87.926;Nepal;AS;NPL
Dhangarhi;28.695;80.593;Nepal;AS;NPL
Birganj;27.0004;84.8666;Nepal;AS;NPL
Nepalganj;28.0503;81.6167;Nepal;AS;NPL
Alofi;-19.0167;-169.9167;Niue;OC;NIU
Masterton;-40.9439;175.6456;New Zealand;OC;NZL
Gore;-46.0947;168.9604;New Zealand;OC;NZL
Te Anau;-45.4074;167.7585;New Zealand;OC;NZL
Invercargill;-46.4094;168.365;New Zealand;OC;NZL
Ashburton;-43.8983;171.7486;New Zealand;OC;NZL
Timaru;-44.3972;171.2425;New Zealand;OC;NZL
Kaikoura;-42.4012;173.6897;New Zealand;OC;NZL
Christchurch;-43.535;172.63;New Zealand;OC;NZL
Queenstown;-45.0227;168.7251;New Zealand;OC;NZL
Porirua;-41.1219;174.8524;New Zealand;OC;NZL
Wanaka;-44.698;169.1449;New Zealand;OC;NZL
Nelson;-41.2926;173.2474;New Zealand;OC;NZL
Picton;-41.2805;174.0166;New Zealand;OC;NZL
Hamilton;-37.7783;175.2896;New Zealand;OC;NZL
Dunedin;-45.8854;170.491;New Zealand;OC;NZL
Thames;-37.1384;175.5853;New Zealand;OC;NZL
Lower Hutt;-41.2037;174.9123;New Zealand;OC;NZL
Palmerston North;-40.3527;175.6072;New Zealand;OC;NZL
Wanganui;-39.9326;175.0393;New Zealand;OC;NZL
Westport;-41.7638;171.6028;New Zealand;OC;NZL
Hokitika;-42.7072;171.01;New Zealand;OC;NZL
Greymouth;-42.4716;171.2231;New Zealand;OC;NZL
Paraparaumu;-40.9034;174.9989;New Zealand;OC;NZL
Wellington;-41.3;174.7833;New Zealand;OC;NZL
Upper Hutt;-41.1355;175.029;New Zealand;OC;NZL
Levin;-40.6124;175.2772;New Zealand;OC;NZL
Rotorua;-38.1317;176.2483;New Zealand;OC;NZL
Tauranga;-37.6964;176.1536;New Zealand;OC;NZL
Waitangi;-44.0263;-176.3696;New Zealand;OC;NZL
Taupo;-38.693;176.0771;New Zealand;OC;NZL
Whakatane;-37.9574;176.9828;New Zealand;OC;NZL
Kerikeri;-35.2285;173.9507;New Zealand;OC;NZL
Whangarei;-35.7256;174.323;New Zealand;OC;NZL
Pukekohe;-37.2015;174.9033;New Zealand;OC;NZL
Auckland;-36.8481;174.763;New Zealand;OC;NZL
Waitakere;-36.8524;174.5543;New Zealand;OC;NZL
Cambridge;-37.8894;175.4703;New Zealand;OC;NZL
Kaitaia;-35.1099;173.2727;New Zealand;OC;NZL
Gisborne;-38.6633;178.0181;New Zealand;OC;NZL
Turangi;-38.9889;175.8142;New Zealand;OC;NZL
Tokoroa;-38.2245;175.8705;New Zealand;OC;NZL
Manukau;-37.0;174.885;New Zealand;OC;NZL
Napier;-39.49;176.9265;New Zealand;OC;NZL
North Shore;-36.7913;174.7758;New Zealand;OC;NZL
Oban;-46.8876;168.1666;New Zealand;OC;NZL
New Plymouth;-39.0556;174.0748;New Zealand;OC;NZL
Hawera;-39.5795;174.278;New Zealand;OC;NZL
Kaiapoi;-43.3813;172.651;New Zealand;OC;NZL
Mirbat;16.9924;54.6918;Oman;AS;OMN
Nizwa;22.9264;57.5314;Oman;AS;OMN
Ar Rustāq;23.3908;57.4244;Oman;AS;OMN
Haymā’;19.9333;56.3167;Oman;AS;OMN
Şūr;22.5667;59.5289;Oman;AS;OMN
Khaşab;26.1799;56.2477;Oman;AS;OMN
Salalah;17.0255;54.0852;Oman;AS;OMN
Muscat;23.6133;58.5933;Oman;AS;OMN
Şuḩār;24.3643;56.7468;Oman;AS;OMN
Ibrā’;22.6906;58.5334;Oman;AS;OMN
Alayat Samail;23.3032;57.9782;Oman;AS;OMN
Ibri;23.2254;56.517;Oman;AS;OMN
Al Buraymī;24.2611;55.7903;Oman;AS;OMN
As Sib;23.6802;58.1825;Oman;AS;OMN
Dawwah;20.633;58.908;Oman;AS;OMN
Suhar;24.362;56.7344;Oman;AS;OMN
Balboa;8.95;-79.5667;Panama;NA;PAN
Panama City;8.968;-79.533;Panama;NA;PAN
La Chorrera;8.8803;-79.7833;Panama;NA;PAN
Colón;9.365;-79.875;Panama;NA;PAN
Jaqué;7.519;-78.166;Panama;NA;PAN
La Palma;8.3982;-78.1402;Panama;NA;PAN
Penonome;8.51;-80.36;Panama;NA;PAN
Unión Chocó;8.0989;-77.6085;Panama;NA;PAN
David;8.4333;-82.4333;Panama;NA;PAN
Puerto Armuelles;8.28;-82.87;Panama;NA;PAN
Santiago;8.1004;-80.9833;Panama;NA;PAN
Las Tablas;7.7604;-80.28;Panama;NA;PAN
Chitré;7.97;-80.42;Panama;NA;PAN
Buabidi;8.4746;-81.6983;Panama;NA;PAN
Bocas del Toro;9.3354;-82.2475;Panama;NA;PAN
Almirante;9.3;-82.4;Panama;NA;PAN
El Porvenir;9.5417;-78.972;Panama;NA;PAN
Trujillo;-8.12;-79.02;Peru;SA;PER
Lima;-12.048;-77.0501;Peru;SA;PER
Abancay;-13.6396;-72.89;Peru;SA;PER
Nuevo Rocafuerte;-0.9329;-75.4;Peru;SA;PER
Arequipa;-16.42;-71.53;Peru;SA;PER
Huaura;-11.06;-77.6;Peru;SA;PER
Tournavista;-8.9322;-74.7052;Peru;SA;PER
Jaén;-5.7096;-78.81;Peru;SA;PER
Huamachuco;-7.81;-78.0499;Peru;SA;PER
Chiclayo;-6.7629;-79.8366;Peru;SA;PER
Motupe;-6.15;-79.71;Peru;SA;PER
Lamas;-6.43;-76.52;Peru;SA;PER
Juanjuí;-7.1696;-76.74;Peru;SA;PER
Olmos;-5.9796;-79.75;Peru;SA;PER
Moyobamba;-6.0496;-76.9667;Peru;SA;PER
Tarapoto;-6.51;-76.48;Peru;SA;PER
Chulucanas;-5.0896;-80.17;Peru;SA;PER
Huaraz;-9.53;-77.53;Peru;SA;PER
Chota;-6.5496;-78.65;Peru;SA;PER
Callao;-12.07;-77.135;Peru;SA;PER
Tarma;-11.41;-75.73;Peru;SA;PER
Ilave;-16.0796;-69.67;Peru;SA;PER
Puno;-15.8329;-70.0333;Peru;SA;PER
Urubamba;-13.3042;-72.1166;Peru;SA;PER
La Oroya;-11.52;-75.94;Peru;SA;PER
San Ramon;-11.1296;-75.34;Peru;SA;PER
Cerro de Pasco;-10.69;-76.27;Peru;SA;PER
Jauja;-11.7996;-75.5;Peru;SA;PER
Cajamarca;-7.15;-78.53;Peru;SA;PER
Satipo;-11.26;-74.69;Peru;SA;PER
Ilo;-17.64;-71.34;Peru;SA;PER
Gueppi;-0.1166;-75.23;Peru;SA;PER
Otuzco;-7.9;-78.57;Peru;SA;PER
Moquegua;-17.19;-70.94;Peru;SA;PER
Andoas;-2.9021;-76.4025;Peru;SA;PER
Salaverry;-8.22;-78.99;Peru;SA;PER
Pativilca;-10.6996;-77.8;Peru;SA;PER
Soldado Bartra;-2.5161;-75.7666;Peru;SA;PER
Puca Urco;-2.3328;-71.9167;Peru;SA;PER
Tumbes;-3.57;-80.46;Peru;SA;PER
Ica;-14.068;-75.7255;Peru;SA;PER
Sullana;-4.8896;-80.68;Peru;SA;PER
Cusco;-13.525;-71.9722;Peru;SA;PER
Santo Tomas;-14.46;-72.08;Peru;SA;PER
Puquio;-14.7;-74.13;Peru;SA;PER
Juliaca;-15.5;-70.14;Peru;SA;PER
Huancayo;-12.08;-75.2;Peru;SA;PER
Piura;-5.21;-80.63;Peru;SA;PER
Paita;-5.09;-81.12;Peru;SA;PER
Tingo María;-9.2896;-75.99;Peru;SA;PER
Huánuco;-9.92;-76.24;Peru;SA;PER
Sicuani;-14.2896;-71.23;Peru;SA;PER
Desaguadero;-16.5646;-69.045;Peru;SA;PER
Cajabamba;-7.6196;-78.04;Peru;SA;PER
Putina;-15.47;-69.43;Peru;SA;PER
Pacasmayo;-7.4006;-79.5706;Peru;SA;PER
Caballococha;-3.9163;-70.5083;Peru;SA;PER
Tocache;-8.1796;-76.52;Peru;SA;PER
Pucallpa;-8.3689;-74.535;Peru;SA;PER
Junín;-11.1496;-76.01;Peru;SA;PER
Camaná;-16.6196;-72.72;Peru;SA;PER
Chincha Alta;-13.4196;-76.14;Peru;SA;PER
Nauta;-4.57;-73.78;Peru;SA;PER
Iquitos;-3.75;-73.25;Peru;SA;PER
Puerto Maldonado;-12.6;-69.1833;Peru;SA;PER
Requena;-5.0696;-73.91;Peru;SA;PER
Casma;-9.44;-78.21;Peru;SA;PER
Ayaviri;-14.8796;-70.6;Peru;SA;PER
Chosica;-11.93;-76.71;Peru;SA;PER
Ayacucho;-13.175;-74.22;Peru;SA;PER
Huancavelica;-12.79;-74.99;Peru;SA;PER
Huanta;-12.9496;-74.25;Peru;SA;PER
Chilca;-12.5196;-76.74;Peru;SA;PER
Chancay;-11.5596;-77.27;Peru;SA;PER
Chimbote;-9.07;-78.57;Peru;SA;PER
Nasca;-14.83;-74.94;Peru;SA;PER
Mollendo;-17.02;-72.02;Peru;SA;PER
Huarmey;-10.0696;-78.16;Peru;SA;PER
Santiago;-14.1896;-75.74;Peru;SA;PER
Coracora;-15.0196;-73.79;Peru;SA;PER
Pimentel;-6.8296;-79.93;Peru;SA;PER
Ferreñafe;-6.63;-79.8;Peru;SA;PER
Talara;-4.58;-81.28;Peru;SA;PER
Sechura;-5.5596;-80.82;Peru;SA;PER
Pisco;-13.71;-76.22;Peru;SA;PER
Contamana;-7.34;-75.02;Peru;SA;PER
Chachapoyas;-6.2296;-77.87;Peru;SA;PER
Huacho;-11.11;-77.6199;Peru;SA;PER
Tacna;-18.0;-70.25;Peru;SA;PER
Papeete;-17.5334;-149.5667;French Polynesia;OC;PYF
Port Moresby;-9.4647;147.1925;Papua New Guinea;OC;PNG
Kieta;-6.2163;155.6333;Papua New Guinea;OC;PNG
Sohano;-5.4297;154.6711;Papua New Guinea;OC;PNG
Wewak;-3.5535;143.6367;Papua New Guinea;OC;PNG
Kavieng;-2.5813;150.813;Papua New Guinea;OC;PNG
Lorengau;-2.032;147.28;Papua New Guinea;OC;PNG
Hoskins;-5.4746;150.41;Papua New Guinea;OC;PNG
Abau;-10.0426;148.565;Papua New Guinea;OC;PNG
Kimbe;-5.55;150.143;Papua New Guinea;OC;PNG
Alotau;-10.3021;150.4591;Papua New Guinea;OC;PNG
Daru;-9.1092;143.2337;Papua New Guinea;OC;PNG
Mt. Hagen;-5.8632;144.2168;Papua New Guinea;OC;PNG
Lae;-6.733;146.99;Papua New Guinea;OC;PNG
Goroka;-6.0833;145.3855;Papua New Guinea;OC;PNG
Madang;-5.2248;145.7853;Papua New Guinea;OC;PNG
Arawa;-6.228;155.566;Papua New Guinea;OC;PNG
Kerema;-7.927;145.838;Papua New Guinea;OC;PNG
Vanimo;-2.69;141.304;Papua New Guinea;OC;PNG
Rabaul;-4.2055;152.1434;Papua New Guinea;OC;PNG
Popondetta;-8.7692;148.2484;Papua New Guinea;OC;PNG
Wabag;-5.49;143.718;Papua New Guinea;OC;PNG
Mendi;-6.1444;143.6452;Papua New Guinea;OC;PNG
Kundiawa;-6.023;144.96;Papua New Guinea;OC;PNG
Alabel;6.1018;125.2905;Philippines;AS;PHL
Laoag;18.1988;120.5936;Philippines;AS;PHL
Marawi City;8.0034;124.2839;Philippines;AS;PHL
Cadiz;10.9587;123.3086;Philippines;AS;PHL
Malaybalay;8.1575;125.1278;Philippines;AS;PHL
Calbayog;12.0672;124.6042;Philippines;AS;PHL
Gingoog;8.8304;125.13;Philippines;AS;PHL
Roxas;11.5853;122.7511;Philippines;AS;PHL
San Pablo;14.0696;121.3226;Philippines;AS;PHL
San Carlos;10.5504;123.38;Philippines;AS;PHL
City of Isabela;6.7041;121.9712;Philippines;AS;PHL
Cabanatuan;15.5021;120.9617;Philippines;AS;PHL
Baguio City;16.43;120.5699;Philippines;AS;PHL
Manila;14.6042;120.9822;Philippines;AS;PHL
Makati City;14.5501;121.036;Philippines;AS;PHL
Pasig City;14.5604;121.0812;Philippines;AS;PHL
City of Parañaque;14.4978;120.9907;Philippines;AS;PHL
Baler;15.7589;121.5607;Philippines;AS;PHL
Bangued;17.5982;120.6155;Philippines;AS;PHL
Balanga;14.6761;120.5361;Philippines;AS;PHL
Boac;13.4463;121.84;Philippines;AS;PHL
Malita;6.415;125.6117;Philippines;AS;PHL
Malolos;14.8443;120.8104;Philippines;AS;PHL
Mati;6.9551;126.2166;Philippines;AS;PHL
Batangas;13.7817;121.0217;Philippines;AS;PHL
Bayombong;16.4812;121.1497;Philippines;AS;PHL
Angeles;15.1451;120.5451;Philippines;AS;PHL
Bacolod;10.6317;122.9817;Philippines;AS;PHL
Mandaue City;10.3237;123.9436;Philippines;AS;PHL
Bongao;5.0292;119.7731;Philippines;AS;PHL
Bontoc;17.0899;120.978;Philippines;AS;PHL
Borongan;11.6081;125.4319;Philippines;AS;PHL
Butuan;8.9495;125.5436;Philippines;AS;PHL
Cabadbaran;9.1236;125.5344;Philippines;AS;PHL
Cabarroguis;16.5111;121.5212;Philippines;AS;PHL
Cagayan de Oro;8.4508;124.6853;Philippines;AS;PHL
Calapan;13.4108;121.1797;Philippines;AS;PHL
Caloocan City;14.6492;120.9826;Philippines;AS;PHL
Catarman;12.4989;124.6377;Philippines;AS;PHL
Catbalogan;11.7753;124.8861;Philippines;AS;PHL
Cebu;10.32;123.9001;Philippines;AS;PHL
Cotabato;7.2169;124.2484;Philippines;AS;PHL
Daet;14.1122;122.9553;Philippines;AS;PHL
Dagupan;16.0479;120.3408;Philippines;AS;PHL
Davao;7.11;125.63;Philippines;AS;PHL
Digos;6.7497;125.3572;Philippines;AS;PHL
Dipolog;8.5883;123.3409;Philippines;AS;PHL
Dumaguete City;9.307;123.3074;Philippines;AS;PHL
General Santos;6.1108;125.1747;Philippines;AS;PHL
Iba;15.3276;119.978;Philippines;AS;PHL
Ilagan;17.1485;121.8892;Philippines;AS;PHL
Iligan;8.1712;124.2154;Philippines;AS;PHL
Iloilo;10.705;122.545;Philippines;AS;PHL
Ipil;7.7844;122.5861;Philippines;AS;PHL
Jolo;6.0522;121.0022;Philippines;AS;PHL
Jordan;10.6584;122.5963;Philippines;AS;PHL
Kabugao;18.0231;121.184;Philippines;AS;PHL
Kalibo;11.7086;122.3648;Philippines;AS;PHL
Kidapawan;7.0083;125.0894;Philippines;AS;PHL
Lagawe;16.8;121.1192;Philippines;AS;PHL
La Trinidad;16.4556;120.5903;Philippines;AS;PHL
Lapu-Lapu City;10.3103;123.9494;Philippines;AS;PHL
Legazpi;13.17;123.75;Philippines;AS;PHL
Lingayen;16.0218;120.2319;Philippines;AS;PHL
Lucena;13.9348;121.6127;Philippines;AS;PHL
Maasin;10.1336;124.8447;Philippines;AS;PHL
Malabon;14.6691;120.972;Philippines;AS;PHL
Mambajao;9.2504;124.7156;Philippines;AS;PHL
Mamburao;13.2233;120.596;Philippines;AS;PHL
Mandaluyong City;14.5832;121.0409;Philippines;AS;PHL
Marikina City;14.6414;121.1118;Philippines;AS;PHL
Masbate;12.3687;123.6225;Philippines;AS;PHL
Muntinlupa City;14.4135;121.0263;Philippines;AS;PHL
Nabunturan;7.6029;125.9629;Philippines;AS;PHL
Naga;13.6192;123.1814;Philippines;AS;PHL
Naval;11.5612;124.3952;Philippines;AS;PHL
Navotas;14.6477;120.9591;Philippines;AS;PHL
Olongapo;14.8296;120.2828;Philippines;AS;PHL
Ormac;11.0643;124.6075;Philippines;AS;PHL
Oroquieta;8.4859;123.8048;Philippines;AS;PHL
Pagadian;7.853;123.507;Philippines;AS;PHL
Palayan City;15.5415;121.0848;Philippines;AS;PHL
Pasay City;14.5504;121.0;Philippines;AS;PHL
Pili;13.7177;123.7448;Philippines;AS;PHL
Prosperidad;8.58;125.8964;Philippines;AS;PHL
Puerto Princesa;9.7543;118.7444;Philippines;AS;PHL
Quezon City;14.6504;121.03;Philippines;AS;PHL
Romblon;12.5751;122.2708;Philippines;AS;PHL
San Fernando;16.6186;120.3194;Philippines;AS;PHL
San Fernando;15.0343;120.6844;Philippines;AS;PHL
San Jose;10.18;125.5683;Philippines;AS;PHL
San Juan;14.6;121.0333;Philippines;AS;PHL
Santa Cruz;14.1167;121.2833;Philippines;AS;PHL
Santiago;16.6881;121.5472;Philippines;AS;PHL
Shariff Aguak;6.8647;124.4417;Philippines;AS;PHL
Siquijor;9.2142;123.515;Philippines;AS;PHL
Sorsogon;12.9708;124.0053;Philippines;AS;PHL
Surigao;9.7843;125.4888;Philippines;AS;PHL
Tabuk;17.4084;121.2785;Philippines;AS;PHL
Tacloban;11.2504;125.0;Philippines;AS;PHL
Taguig City;14.5289;121.0723;Philippines;AS;PHL
Tagum;7.4475;125.8094;Philippines;AS;PHL
Tandag;9.0783;126.1986;Philippines;AS;PHL
Tarlac;15.4838;120.5834;Philippines;AS;PHL
Trece Martires City;14.2832;120.8677;Philippines;AS;PHL
Tubod;8.0555;123.7904;Philippines;AS;PHL
Tuguegarao;17.6131;121.7269;Philippines;AS;PHL
Valenzuela;14.6936;120.9656;Philippines;AS;PHL
Vigan;17.5747;120.3869;Philippines;AS;PHL
Virac;13.5848;124.2374;Philippines;AS;PHL
Zamboanga;6.92;122.08;Philippines;AS;PHL
San Jose;10.745;121.9415;Philippines;AS;PHL
Basco;20.4486;121.9702;Philippines;AS;PHL
Antipolo;14.5886;121.1757;Philippines;AS;PHL
Koronadal;6.2541;124.9922;Philippines;AS;PHL
Isulan;6.6294;124.6051;Philippines;AS;PHL
Ozamis;8.1462;123.8444;Philippines;AS;PHL
Tagum;7.3821;125.8017;Philippines;AS;PHL
Karachi;24.87;66.99;Pakistan;AS;PAK
Gilgit;35.9171;74.3;Pakistan;AS;PAK
Chaman;30.925;66.4463;Pakistan;AS;PAK
Turbat;25.9918;63.0718;Pakistan;AS;PAK
Islamabad;33.7;73.1666;Pakistan;AS;PAK
Zhob;31.349;69.4386;Pakistan;AS;PAK
Quetta;30.22;67.025;Pakistan;AS;PAK
Hyderabad;25.38;68.375;Pakistan;AS;PAK
Mardan;34.2;72.04;Pakistan;AS;PAK
Saidu;34.75;72.35;Pakistan;AS;PAK
Jhang;31.2804;72.325;Pakistan;AS;PAK
Kasur;31.1254;74.455;Pakistan;AS;PAK
Lahore;31.56;74.35;Pakistan;AS;PAK
Nawabshah;26.2454;68.4;Pakistan;AS;PAK
Chiniot;31.72;72.98;Pakistan;AS;PAK
Bannu;32.989;70.5986;Pakistan;AS;PAK
Sadiqabad;28.3006;70.1302;Pakistan;AS;PAK
Sukkur;27.7136;68.8486;Pakistan;AS;PAK
Peshawar;34.005;71.535;Pakistan;AS;PAK
Bahawalpur;29.39;71.675;Pakistan;AS;PAK
Sargodha;32.0854;72.675;Pakistan;AS;PAK
Dera Ismail Khan;31.829;70.8986;Pakistan;AS;PAK
Kundian;32.4522;71.4718;Pakistan;AS;PAK
Gwadar;25.139;62.3286;Pakistan;AS;PAK
Parachinar;33.8992;70.1008;Pakistan;AS;PAK
Larkana;27.5618;68.2068;Pakistan;AS;PAK
Kohat;33.6027;71.4327;Pakistan;AS;PAK
Rahim Yar Khan;28.4202;70.2952;Pakistan;AS;PAK
Mirput Khas;25.5318;69.0118;Pakistan;AS;PAK
Dera Ghazi Khan;30.0604;70.6351;Pakistan;AS;PAK
Gujranwala;32.1604;74.185;Pakistan;AS;PAK
Rawalpindi;33.6;73.04;Pakistan;AS;PAK
Gujrat;32.58;74.08;Pakistan;AS;PAK
Sialkote;32.52;74.56;Pakistan;AS;PAK
Mansehra;34.3418;73.1968;Pakistan;AS;PAK
Abbottabad;34.1495;73.1995;Pakistan;AS;PAK
Multan;30.2;71.455;Pakistan;AS;PAK
Sheikhu Pura;31.72;73.99;Pakistan;AS;PAK
Sahiwal;30.6717;73.1118;Pakistan;AS;PAK
Okara;30.8104;73.45;Pakistan;AS;PAK
Faisalabad;31.41;73.11;Pakistan;AS;PAK
Łódź;51.775;19.4514;Poland;EU;POL
Lublin;51.2504;22.5727;Poland;EU;POL
Wrocław;51.1104;17.03;Poland;EU;POL
Białystok;53.1504;23.17;Poland;EU;POL
Poznań;52.4058;16.8999;Poland;EU;POL
Zielona Góra;51.9504;15.5;Poland;EU;POL
Bydgoszcz;53.1204;18.01;Poland;EU;POL
Szczecin;53.4204;14.53;Poland;EU;POL
Gdańsk;54.36;18.64;Poland;EU;POL
Olsztyn;53.8;20.48;Poland;EU;POL
Katowice;50.2604;19.02;Poland;EU;POL
Rzeszów;50.0705;22.0;Poland;EU;POL
Kraków;50.06;19.96;Poland;EU;POL
Opole;50.685;17.9313;Poland;EU;POL
Kielce;50.8904;20.66;Poland;EU;POL
Gorzów Wielkopolski;52.7368;15.2288;Poland;EU;POL
Gdynia;54.5204;18.53;Poland;EU;POL
Grudziądz;53.4804;18.75;Poland;EU;POL
Inowrocław;52.7799;18.25;Poland;EU;POL
Gliwice;50.3304;18.67;Poland;EU;POL
Bytom;50.35;18.91;Poland;EU;POL
Warsaw;52.25;21.0;Poland;EU;POL
Elbląg;54.19;19.4027;Poland;EU;POL
Ełk;53.8337;22.35;Poland;EU;POL
Koszalin;54.2;16.1833;Poland;EU;POL
Saint-Pierre;46.7811;-56.1764;Saint Pierre And Miquelon;NA;SPM
Adamstown;-25.0667;-130.0833;Pitcairn Islands;EU;PCN
Funchal;32.65;-16.88;Portugal;EU;PRT
Setúbal;38.53;-8.9;Portugal;EU;PRT
Lisbon;38.7227;-9.1449;Portugal;EU;PRT
Évora;38.56;-7.906;Portugal;EU;PRT
Angra do Heroísmo;38.6504;-27.2167;Portugal;EU;PRT
Santarém;39.231;-8.682;Portugal;EU;PRT
Horta;38.5347;-28.6448;Portugal;EU;PRT
Ponta Delgada;37.7483;-25.6666;Portugal;EU;PRT
Porto;41.15;-8.62;Portugal;EU;PRT
Faro;37.0171;-7.9333;Portugal;EU;PRT
Vila Real;41.294;-7.737;Portugal;EU;PRT
Aveiro;40.641;-8.651;Portugal;EU;PRT
Guarda;40.541;-7.262;Portugal;EU;PRT
Viseu;40.657;-7.91;Portugal;EU;PRT
Bragança;41.808;-6.755;Portugal;EU;PRT
Viana Do Castelo;41.6962;-8.8441;Portugal;EU;PRT
Braga;41.555;-8.4213;Portugal;EU;PRT
Beja;38.014;-7.863;Portugal;EU;PRT
Castelo Branco;39.811;-7.488;Portugal;EU;PRT
Portalegre;39.29;-7.423;Portugal;EU;PRT
Coimbra;40.2004;-8.4167;Portugal;EU;PRT
Leiria;39.739;-8.805;Portugal;EU;PRT
Covilhã;40.2833;-7.5;Portugal;EU;PRT
Portimão;37.1337;-8.5333;Portugal;EU;PRT
Koror;7.3452;134.4695;Palau;OC;PLW
Melekeok;7.4874;134.6265;Palau;OC;PLW
Ngerulmud;7.5;134.6242;Palau;OC;PLW
La Victoria;-22.2896;-57.94;Paraguay;SA;PRY
General Eugenio Alejandrino Garay;-20.52;-62.21;Paraguay;SA;PRY
Bella Vista;-22.1296;-56.52;Paraguay;SA;PRY
Ñacunday;-26.02;-54.7699;Paraguay;SA;PRY
Mariscal Estigarribia;-22.03;-60.61;Paraguay;SA;PRY
Horqueta;-23.3396;-57.05;Paraguay;SA;PRY
Capitan Pablo Lagerenza;-19.9161;-60.7833;Paraguay;SA;PRY
Pozo Colorado;-23.43;-58.86;Paraguay;SA;PRY
Belén;-23.4695;-57.24;Paraguay;SA;PRY
Fuerte Olimpo;-21.0696;-57.9;Paraguay;SA;PRY
Abaí;-26.0296;-55.94;Paraguay;SA;PRY
Areguá;-25.3125;-57.3847;Paraguay;SA;PRY
Caazapá;-26.2;-56.38;Paraguay;SA;PRY
Concepción;-23.4064;-57.4344;Paraguay;SA;PRY
Caacupé;-25.387;-57.14;Paraguay;SA;PRY
Villarrica;-25.75;-56.4333;Paraguay;SA;PRY
Pedro Juan Caballero;-22.5446;-55.76;Paraguay;SA;PRY
Encarnación;-27.3472;-55.8739;Paraguay;SA;PRY
Coronel Oviedo;-25.45;-56.44;Paraguay;SA;PRY
Ciudad del Este;-25.5167;-54.6161;Paraguay;SA;PRY
San Juan Bautista;-26.68;-57.15;Paraguay;SA;PRY
Pilar;-26.8695;-58.3;Paraguay;SA;PRY
Paraguarí;-25.62;-57.16;Paraguay;SA;PRY
Villa Hayes;-25.09;-57.53;Paraguay;SA;PRY
San Pedro;-24.09;-57.08;Paraguay;SA;PRY
Ype Jhu;-23.91;-55.46;Paraguay;SA;PRY
Filadelfia;-22.34;-60.03;Paraguay;SA;PRY
Salto del Guairá;-24.0625;-54.3069;Paraguay;SA;PRY
Asunción;-25.2964;-57.6415;Paraguay;SA;PRY
Puerto Pinasco;-22.64;-57.79;Paraguay;SA;PRY
San Lorenzo;-25.34;-57.52;Paraguay;SA;PRY
Itá;-25.5096;-57.36;Paraguay;SA;PRY
Hohenau;-27.0795;-55.75;Paraguay;SA;PRY
Ypacaraí;-25.41;-57.28;Paraguay;SA;PRY
Rosario;-24.4196;-57.1;Paraguay;SA;PRY
Coronel Bogado;-27.17;-56.25;Paraguay;SA;PRY
Ygatimí;-24.0796;-55.5;Paraguay;SA;PRY
Arroyos y Esteros;-25.05;-57.09;Paraguay;SA;PRY
Az̧ Z̧a‘āyin;25.5774;51.4831;Qatar;AS;QAT
Al Wakrah;25.1715;51.6034;Qatar;AS;QAT
Al Khawr;25.6839;51.5058;Qatar;AS;QAT
Madīnat ash Shamāl;26.1293;51.2009;Qatar;AS;QAT
Umm Şalāl ‘Alī;25.4697;51.3975;Qatar;AS;QAT
Ar Rayyān;25.2919;51.4244;Qatar;AS;QAT
Doha;25.2866;51.533;Qatar;AS;QAT
Ash Shīḩānīyah;25.3709;51.2226;Qatar;AS;QAT
St.-Denis;-20.8789;55.4481;Reunion;AF;REU
St.-Benoit;-21.0335;55.7128;Reunion;AF;REU
Drobeta-Turnu Severin;44.6459;22.6659;Romania;EU;ROU
Brăila;45.292;27.969;Romania;EU;ROU
Oradea;47.05;21.92;Romania;EU;ROU
Timișoara;45.7588;21.2234;Romania;EU;ROU
Reșița;45.297;21.8865;Romania;EU;ROU
Călărași;44.2063;27.3259;Romania;EU;ROU
Arad;46.17;21.32;Romania;EU;ROU
Alexandria;43.9016;25.2867;Romania;EU;ROU
Slobozia;44.57;27.382;Romania;EU;ROU
Baia Mare;47.6595;23.5791;Romania;EU;ROU
Tulcea;45.1993;28.7967;Romania;EU;ROU
Ploiești;44.9469;26.0365;Romania;EU;ROU
Piatra-Neamt;46.94;26.383;Romania;EU;ROU
Suceava;47.6377;26.2593;Romania;EU;ROU
Botoșani;47.7484;26.6597;Romania;EU;ROU
Constanța;44.2027;28.61;Romania;EU;ROU
Buzău;45.1565;26.8065;Romania;EU;ROU
Galați;45.4559;28.0459;Romania;EU;ROU
Vaslui;46.6333;27.7333;Romania;EU;ROU
Sfintu-Gheorghe;45.868;25.793;Romania;EU;ROU
Bacău;46.5784;26.9196;Romania;EU;ROU
Focșani;45.6966;27.1865;Romania;EU;ROU
Bucharest;44.4334;26.0999;Romania;EU;ROU
Brașov;45.6475;25.6072;Romania;EU;ROU
Pitești;44.8563;24.8758;Romania;EU;ROU
Tirgu Mures;46.5582;24.5578;Romania;EU;ROU
Deva;45.8833;22.9167;Romania;EU;ROU
Cluj-Napoca;46.7884;23.5984;Romania;EU;ROU
Rimnicu Vilcea;45.11;24.383;Romania;EU;ROU
Sibiu;45.7971;24.1371;Romania;EU;ROU
Târgu Jiu;45.045;23.274;Romania;EU;ROU
Alba Lulia;46.077;23.58;Romania;EU;ROU
Giurgiu;43.93;25.84;Romania;EU;ROU
Zalău;47.175;23.063;Romania;EU;ROU
Craiova;44.3263;23.8259;Romania;EU;ROU
Hunedoara;45.75;22.9;Romania;EU;ROU
Târgoviște;44.938;25.459;Romania;EU;ROU
Bistrița;47.138;24.513;Romania;EU;ROU
Satu Mare;47.792;22.885;Romania;EU;ROU
Slatina;44.435;24.371;Romania;EU;ROU
Miercurea Cuic;46.361;25.524;Romania;EU;ROU
Iași;47.1683;27.5749;Romania;EU;ROU
Belgrade;44.8186;20.468;Serbia;EU;SRB
Aranđelovac;44.3077;20.5612;Serbia;EU;SRB
Bela Palanka;43.2196;22.314;Serbia;EU;SRB
Gadžin Han;43.2223;22.0333;Serbia;EU;SRB
Niš;43.3304;21.9;Serbia;EU;SRB
Svrljig;43.4129;22.1252;Serbia;EU;SRB
Sokobanja;43.6453;21.8692;Serbia;EU;SRB
Boljevac;43.8321;21.9609;Serbia;EU;SRB
Zaječar;43.9019;22.2755;Serbia;EU;SRB
Bor;44.0819;22.0967;Serbia;EU;SRB
Negotin;44.2264;22.5308;Serbia;EU;SRB
Kladovo;44.6073;22.6155;Serbia;EU;SRB
Majdanpek;44.4228;21.9358;Serbia;EU;SRB
Golubac;44.6529;21.6308;Serbia;EU;SRB
Kučevo;44.4767;21.6712;Serbia;EU;SRB
Žagubica;44.1979;21.7902;Serbia;EU;SRB
Petrovac na Mlavi;44.3773;21.4198;Serbia;EU;SRB
Despotovac;44.0932;21.444;Serbia;EU;SRB
Svilajnac;44.2383;21.197;Serbia;EU;SRB
Doljevac;43.1968;21.8334;Serbia;EU;SRB
Merošina;43.2813;21.7218;Serbia;EU;SRB
Aleksinac;43.5417;21.7078;Serbia;EU;SRB
Blace;43.297;21.2727;Serbia;EU;SRB
Brus;43.3846;21.0289;Serbia;EU;SRB
Kruševac;43.581;21.3352;Serbia;EU;SRB
Aleksandrovac;43.4609;21.0539;Serbia;EU;SRB
Vrnjačka Banja;43.6223;20.8956;Serbia;EU;SRB
Trstenik;43.6169;21.0025;Serbia;EU;SRB
Varvarin;43.7195;21.3712;Serbia;EU;SRB
Ćićevac;43.72;21.4436;Serbia;EU;SRB
Ražanj;43.6744;21.5492;Serbia;EU;SRB
Paraćin;43.8592;21.4119;Serbia;EU;SRB
Ćuprija;43.9284;21.3745;Serbia;EU;SRB
Jagodina;43.9791;21.2583;Serbia;EU;SRB
Rekovac;43.8609;21.0958;Serbia;EU;SRB
Ada;45.8027;20.1285;Serbia;EU;SRB
Alibunar;45.0789;20.9682;Serbia;EU;SRB
Apatin;45.6709;18.9843;Serbia;EU;SRB
Prijepolje;43.3903;19.6506;Serbia;EU;SRB
Rača;44.2268;20.979;Serbia;EU;SRB
Raška;43.2859;20.6135;Serbia;EU;SRB
Ruma;45.0079;19.8171;Serbia;EU;SRB
Senta;45.9273;20.0789;Serbia;EU;SRB
Sečanj;45.3676;20.7732;Serbia;EU;SRB
Sjenica;43.2735;20.0004;Serbia;EU;SRB
Smederevo;44.6516;20.9258;Serbia;EU;SRB
Smederevska Palanka;44.3654;20.9623;Serbia;EU;SRB
Sombor;45.7742;19.1151;Serbia;EU;SRB
Srbobran;45.5481;19.7954;Serbia;EU;SRB
Sremska Mitrovica;44.9764;19.6122;Serbia;EU;SRB
Sremski Karlovci;45.2021;19.9325;Serbia;EU;SRB
Stara Pazova;44.9861;20.1597;Serbia;EU;SRB
Subotica;46.07;19.68;Serbia;EU;SRB
Temerin;45.4095;19.8911;Serbia;EU;SRB
Titel;45.206;20.2949;Serbia;EU;SRB
Topola;44.2544;20.6824;Serbia;EU;SRB
Tutin;42.99;20.3334;Serbia;EU;SRB
Ub;44.4572;20.0762;Serbia;EU;SRB
Užice;43.8582;19.8441;Serbia;EU;SRB
Valjevo;44.272;19.8874;Serbia;EU;SRB
Veliko Gradište;44.7638;21.5163;Serbia;EU;SRB
Vladimirci;44.6158;19.7843;Serbia;EU;SRB
Vrbas;45.5704;19.6479;Serbia;EU;SRB
Vršac;45.1175;21.2983;Serbia;EU;SRB
Zrenjanin;45.3786;20.3995;Serbia;EU;SRB
Gornji Milanovac;44.0245;20.4586;Serbia;EU;SRB
Inđija;45.0482;20.0816;Serbia;EU;SRB
Irig;45.1001;19.8603;Serbia;EU;SRB
Ivanjica;43.582;20.2284;Serbia;EU;SRB
Kanjiža;46.0635;20.0504;Serbia;EU;SRB
Kikinda;45.8323;20.4682;Serbia;EU;SRB
Knić;43.927;20.7197;Serbia;EU;SRB
Koceljeva;44.4687;19.8214;Serbia;EU;SRB
Kosjerić;43.9987;19.9079;Serbia;EU;SRB
Kovačica;45.1109;20.6236;Serbia;EU;SRB
Kovin;44.7482;20.9766;Serbia;EU;SRB
Kragujevac;44.02;20.92;Serbia;EU;SRB
Kraljevo;43.7259;20.6896;Serbia;EU;SRB
Krupanj;44.3676;19.3633;Serbia;EU;SRB
Kula;45.6109;19.5274;Serbia;EU;SRB
Lajkovac;44.37;20.1644;Serbia;EU;SRB
Lapovo;44.1877;21.0969;Serbia;EU;SRB
Ljig;44.2266;20.2394;Serbia;EU;SRB
Ljubovija;44.1896;19.3785;Serbia;EU;SRB
Loznica;44.5312;19.2427;Serbia;EU;SRB
Lučani;43.8608;20.1384;Serbia;EU;SRB
Mali Iđoš;45.7092;19.6663;Serbia;EU;SRB
Mali Zvornik;44.3992;19.1214;Serbia;EU;SRB
Malo Crniće;44.5603;21.2906;Serbia;EU;SRB
Mionica;44.2524;20.0817;Serbia;EU;SRB
Nova Crnja;45.6685;20.6042;Serbia;EU;SRB
Nova Varoš;43.46;19.8117;Serbia;EU;SRB
Novi Bečej;45.6015;20.1364;Serbia;EU;SRB
Novi Kneževac;46.041;20.0958;Serbia;EU;SRB
Novi Pazar;43.1375;20.5149;Serbia;EU;SRB
Novi Sad;45.2504;19.8499;Serbia;EU;SRB
Odžaci;45.5076;19.2606;Serbia;EU;SRB
Opovo;45.0522;20.4313;Serbia;EU;SRB
Osečina;44.3728;19.601;Serbia;EU;SRB
Pančevo;44.8713;20.6443;Serbia;EU;SRB
Pećinci;44.9089;19.9664;Serbia;EU;SRB
Plandište;45.2292;21.1238;Serbia;EU;SRB
Požarevac;44.6222;21.1826;Serbia;EU;SRB
Požega;43.8459;20.0368;Serbia;EU;SRB
Priboj;43.5836;19.5258;Serbia;EU;SRB
Šid;45.1276;19.2267;Serbia;EU;SRB
Šabac;44.7538;19.6876;Serbia;EU;SRB
Arilje;43.755;20.097;Serbia;EU;SRB
Bajina Bašta;43.9709;19.5655;Serbia;EU;SRB
Batočina;44.1547;21.0799;Serbia;EU;SRB
Bač;45.3923;19.2367;Serbia;EU;SRB
Bačka Palanka;45.2519;19.3916;Serbia;EU;SRB
Bačka Topola;45.8152;19.6369;Serbia;EU;SRB
Bački Petrovac;45.3616;19.592;Serbia;EU;SRB
Bela Crkva;44.9015;21.4234;Serbia;EU;SRB
Bečej;45.6196;20.04;Serbia;EU;SRB
Bogatić;44.8376;19.4807;Serbia;EU;SRB
Žitište;45.4854;20.5507;Serbia;EU;SRB
Žabari;44.3562;21.2143;Serbia;EU;SRB
Žabalj;45.3741;20.0707;Serbia;EU;SRB
Čoka;45.9415;20.146;Serbia;EU;SRB
Čačak;43.8897;20.3301;Serbia;EU;SRB
Trgovište;42.3514;22.0921;Serbia;EU;SRB
Vranje;42.556;21.9002;Serbia;EU;SRB
Bujanovac;42.4606;21.7666;Serbia;EU;SRB
Preševo;42.3071;21.65;Serbia;EU;SRB
Bosilegrad;42.5005;22.4728;Serbia;EU;SRB
Surdulica;42.6904;22.1704;Serbia;EU;SRB
Vladičin Han;42.7082;22.0664;Serbia;EU;SRB
Crna Trava;42.8071;22.3247;Serbia;EU;SRB
Vlasotince;42.9659;22.1272;Serbia;EU;SRB
Žitorađa;43.1902;21.7134;Serbia;EU;SRB
Prokuplje;43.2383;21.5932;Serbia;EU;SRB
Babušnica;43.068;22.4115;Serbia;EU;SRB
Dimitrovgrad;43.0155;22.7776;Serbia;EU;SRB
Pirot;43.1617;22.5871;Serbia;EU;SRB
Knjaževac;43.5667;22.2539;Serbia;EU;SRB
Kuršumlija;43.139;21.2735;Serbia;EU;SRB
Medveđa;42.842;21.5858;Serbia;EU;SRB
Bojnik;43.0142;21.718;Serbia;EU;SRB
Lebane;42.9171;21.7294;Serbia;EU;SRB
Leskovac;42.9976;21.9445;Serbia;EU;SRB
Čajetina;43.7497;19.715;Serbia;EU;SRB
Velika Plana;44.3323;21.0751;Serbia;EU;SRB
Beočin;45.1916;19.725;Serbia;EU;SRB
Volgodonsk;47.51;42.1599;Russia;EU;RUS
Saskylakh;71.9166;114.0833;Russia;EU;RUS
Polevskoy;56.4434;60.188;Russia;EU;RUS
Saranpaul;64.2505;60.97;Russia;EU;RUS
Severnyy;67.6083;64.1233;Russia;EU;RUS
Pervouralsk;56.91;59.955;Russia;EU;RUS
Novy Port;67.6983;72.9283;Russia;EU;RUS
Pugachev;52.0148;48.7944;Russia;EU;RUS
Numto;63.6667;71.3333;Russia;EU;RUS
Novy Urengoy;66.0833;76.6332;Russia;EU;RUS
Novyy Uoyin;56.135;111.7339;Russia;EU;RUS
Nizhny Novgorod;56.333;44.0001;Russia;EU;RUS
Miass;54.9954;60.0949;Russia;EU;RUS
Omsk;54.99;73.4;Russia;EU;RUS
Naltchik;43.4981;43.6179;Russia;EU;RUS
Mirnyy;62.54;113.9614;Russia;EU;RUS
Monchegorsk;67.9291;32.8287;Russia;EU;RUS
Nyagan;62.1465;65.3814;Russia;EU;RUS
Maykop;44.61;40.12;Russia;EU;RUS
Kirensk;57.7857;108.1119;Russia;EU;RUS
Kolpino;59.73;30.65;Russia;EU;RUS
Khorgo;73.4833;113.63;Russia;EU;RUS
Kislovodsk;43.91;42.72;Russia;EU;RUS
Guryevsk;54.2981;85.9377;Russia;EU;RUS
Ivdel;60.6936;60.4133;Russia;EU;RUS
Gusinoozyorsk;51.2808;106.5004;Russia;EU;RUS
Kamenka;53.1947;44.0444;Russia;EU;RUS
Kargat;55.1959;80.2811;Russia;EU;RUS
Kasimov;54.9435;41.3931;Russia;EU;RUS
Kolomna;55.08;38.785;Russia;EU;RUS
Khanty Mansiysk;61.0015;69.0015;Russia;EU;RUS
Dimitrovgrad;54.2504;49.56;Russia;EU;RUS
Cheremkhovo;53.1588;103.0739;Russia;EU;RUS
Gornyak;50.9881;81.4877;Russia;EU;RUS
Blagodarnyy;45.1047;43.4344;Russia;EU;RUS
Bodaybo;57.965;114.329;Russia;EU;RUS
Biysk;52.5341;85.18;Russia;EU;RUS
Abakan;53.7037;91.445;Russia;EU;RUS
Angarsk;52.56;103.92;Russia;EU;RUS
Birsk;55.4244;55.5444;Russia;EU;RUS
Pskov;57.83;28.3299;Russia;EU;RUS
Smolensk;54.7827;32.0473;Russia;EU;RUS
Put Lenina;68.5166;107.8;Russia;EU;RUS
Kemerovo;55.34;86.09;Russia;EU;RUS
Kolpashevo;58.3004;82.9954;Russia;EU;RUS
Polyarnyy;69.2052;33.4502;Russia;EU;RUS
St. Petersburg;59.939;30.316;Russia;EU;RUS
Pyatigorsk;44.08;43.09;Russia;EU;RUS
Nefteyugansk;61.0777;72.7027;Russia;EU;RUS
Chernogorsk;53.8313;91.2227;Russia;EU;RUS
Lensk;60.7253;114.947;Russia;EU;RUS
Krasnoarmeysk;51.0174;45.6974;Russia;EU;RUS
Saratov;51.58;46.03;Russia;EU;RUS
Shira;54.4914;89.9531;Russia;EU;RUS
Solnechnogorsk;56.1807;36.9809;Russia;EU;RUS
Irkutsk;52.32;104.245;Russia;EU;RUS
Noyabrsk;63.1665;75.6165;Russia;EU;RUS
Yurga;55.7258;84.8854;Russia;EU;RUS
Zelenokumsk;44.4091;43.8787;Russia;EU;RUS
Olenek;68.525;112.45;Russia;EU;RUS
Salekhard;66.535;66.61;Russia;EU;RUS
Borovichi;58.3978;33.8974;Russia;EU;RUS
Kaluga;54.5204;36.27;Russia;EU;RUS
Izhevsk;56.85;53.23;Russia;EU;RUS
Volsk;52.0347;47.3743;Russia;EU;RUS
Cherepovets;59.1404;37.91;Russia;EU;RUS
Pallasovka;50.0477;46.8773;Russia;EU;RUS
Peregrebnoye;62.967;65.0859;Russia;EU;RUS
Tyumen;57.14;65.53;Russia;EU;RUS
Toguchin;55.2377;84.3777;Russia;EU;RUS
Nadym;65.5298;72.5148;Russia;EU;RUS
Matochkin Shar;73.27;56.4497;Russia;EU;RUS
Kurtamysh;54.9087;64.4333;Russia;EU;RUS
Barnaul;53.355;83.745;Russia;EU;RUS
Kimry;56.8691;37.3444;Russia;EU;RUS
Elista;46.3287;44.2087;Russia;EU;RUS
Gorno Altaysk;51.9613;85.9577;Russia;EU;RUS
Surgut;61.2599;73.425;Russia;EU;RUS
Cheboksary;56.13;47.25;Russia;EU;RUS
Mariinsk;56.2108;87.7604;Russia;EU;RUS
Safonovo;55.1465;33.2161;Russia;EU;RUS
Sayanogorsk;53.0894;91.4004;Russia;EU;RUS
Roslavl;53.9509;32.8604;Russia;EU;RUS
Rubtsovsk;51.52;81.21;Russia;EU;RUS
Slyudyanka;51.6538;103.6988;Russia;EU;RUS
Laryak;61.1012;80.2514;Russia;EU;RUS
Abaza;52.669;90.0954;Russia;EU;RUS
Velikiy Novgorod;58.5;31.33;Russia;EU;RUS
Klin;56.3431;36.6987;Russia;EU;RUS
Bagdarin;54.4333;113.6;Russia;EU;RUS
Kovrov;56.3604;41.33;Russia;EU;RUS
Sokol;59.4648;40.1144;Russia;EU;RUS
Engels;51.5004;46.12;Russia;EU;RUS
Gatchina;59.5707;30.1333;Russia;EU;RUS
Nizhnyaya Tura;58.6436;59.7983;Russia;EU;RUS
Mundybash;53.2333;87.3167;Russia;EU;RUS
Prokopyevsk;53.9;86.71;Russia;EU;RUS
Kiselevsk;54.0;86.64;Russia;EU;RUS
Novokuznetsk;53.75;87.115;Russia;EU;RUS
Luga;58.7363;29.839;Russia;EU;RUS
Moscow;55.7522;37.6155;Russia;EU;RUS
Slavgorod;53.0049;78.6696;Russia;EU;RUS
Kulunda;52.5827;78.9473;Russia;EU;RUS
Krasnoturinsk;59.7948;60.4848;Russia;EU;RUS
Vladikavkaz;43.0504;44.67;Russia;EU;RUS
Amderma;69.763;61.6677;Russia;EU;RUS
Varnek;69.7301;60.0636;Russia;EU;RUS
Leninsk Kuznetsky;54.66;86.17;Russia;EU;RUS
Mozdok;43.7543;44.6544;Russia;EU;RUS
Tashtagol;52.7918;87.8677;Russia;EU;RUS
Megion;61.0608;76.0953;Russia;EU;RUS
Balashov;51.5535;43.1631;Russia;EU;RUS
Zima;53.9331;102.0331;Russia;EU;RUS
Samara;53.195;50.1513;Russia;EU;RUS
Vyazma;55.2122;34.2918;Russia;EU;RUS
Igrim;63.1933;64.4194;Russia;EU;RUS
Norilsk;69.34;88.225;Russia;EU;RUS
Belebey;54.1291;54.1187;Russia;EU;RUS
Kalachinsk;55.0487;74.5683;Russia;EU;RUS
Vologda;59.21;39.92;Russia;EU;RUS
Orenburg;51.78;55.11;Russia;EU;RUS
Vyborg;60.7039;28.7549;Russia;EU;RUS
Svetogorsk;61.1013;28.9177;Russia;EU;RUS
Cherlak;54.1605;74.82;Russia;EU;RUS
Mezen;65.8522;44.24;Russia;EU;RUS
Buzuluk;52.7821;52.2618;Russia;EU;RUS
Kupina;54.3592;77.2742;Russia;EU;RUS
Karasuk;53.7273;78.0219;Russia;EU;RUS
Saransk;54.1704;45.18;Russia;EU;RUS
Barabinsk;55.3573;78.3519;Russia;EU;RUS
Bukachacha;52.9833;116.9166;Russia;EU;RUS
Alatyr;54.8504;46.6;Russia;EU;RUS
Shilka;51.8706;116.0306;Russia;EU;RUS
Sherlovaya Gora;50.5306;116.3006;Russia;EU;RUS
Nerchinsk;52.009;116.5486;Russia;EU;RUS
Olovyannaya;50.95;115.5666;Russia;EU;RUS
Borzya;50.3886;116.5186;Russia;EU;RUS
Bugulma;54.5543;52.7943;Russia;EU;RUS
Strezhevoy;60.7332;77.5777;Russia;EU;RUS
Nizhenvartovsk;60.935;76.58;Russia;EU;RUS
Anzhero Sudzhensk;56.08;86.04;Russia;EU;RUS
Rayevskiy;54.0674;54.9269;Russia;EU;RUS
Chita;52.055;113.465;Russia;EU;RUS
Artemovskiy;57.3652;61.8698;Russia;EU;RUS
Ryazan;54.62;39.72;Russia;EU;RUS
Bezhetsk;57.7647;36.69;Russia;EU;RUS
Novomoskovsk;54.09;38.22;Russia;EU;RUS
Zheleznogorsk;52.3548;35.4044;Russia;EU;RUS
Alapayevsk;57.8465;61.6915;Russia;EU;RUS
Starsy Oskol;51.3004;37.84;Russia;EU;RUS
Rostov;57.1892;39.4043;Russia;EU;RUS
Gubkin;51.2743;37.3843;Russia;EU;RUS
Kumertau;52.7748;55.7843;Russia;EU;RUS
Oktyabrskiy;54.46;53.46;Russia;EU;RUS
Zheleznogorsk Ilimskiy;56.5762;104.1227;Russia;EU;RUS
Noginsk;55.8704;38.48;Russia;EU;RUS
Staraya Russa;57.9948;31.3544;Russia;EU;RUS
Tikhvin;59.6448;33.5144;Russia;EU;RUS
Asbest;57.023;61.458;Russia;EU;RUS
Yoshkar Ola;56.6354;47.8749;Russia;EU;RUS
Ufa;54.79;56.04;Russia;EU;RUS
Krasnokamensk;50.0665;118.0265;Russia;EU;RUS
Orsk;51.21;58.6273;Russia;EU;RUS
Novotroitsk;51.2;58.33;Russia;EU;RUS
Bologoye;57.8722;34.0518;Russia;EU;RUS
Mikhaylovka;50.0679;43.2175;Russia;EU;RUS
Novozybkov;52.5348;31.9449;Russia;EU;RUS
Chapayevsk;52.9743;49.7243;Russia;EU;RUS
Novokuybishevsk;53.12;49.9199;Russia;EU;RUS
Tavda;58.0537;65.2583;Russia;EU;RUS
Michurinsk;52.9;40.5;Russia;EU;RUS
Serov;59.615;60.585;Russia;EU;RUS
Alekseyevka;50.6535;38.6931;Russia;EU;RUS
Valuyki;50.2091;38.0987;Russia;EU;RUS
Tuymazy;54.6048;53.6943;Russia;EU;RUS
Lgov;51.6948;35.2744;Russia;EU;RUS
Rybinsk;58.0503;38.82;Russia;EU;RUS
Uglich;57.5244;38.33;Russia;EU;RUS
Slantsy;59.1116;28.0747;Russia;EU;RUS
Vyska;55.3247;42.1644;Russia;EU;RUS
Armavir;45.0004;41.13;Russia;EU;RUS
Stavropol;45.05;41.98;Russia;EU;RUS
Bryansk;53.26;34.43;Russia;EU;RUS
Kropotkin;45.4471;40.5821;Russia;EU;RUS
Shchekino;54.0143;37.5143;Russia;EU;RUS
Derbent;42.0578;48.2774;Russia;EU;RUS
Nikolayevsk;50.0161;45.4261;Russia;EU;RUS
Tula;54.2;37.6299;Russia;EU;RUS
Murom;55.5704;42.04;Russia;EU;RUS
Plast;54.3685;60.8085;Russia;EU;RUS
Kamyshin;50.0804;45.4;Russia;EU;RUS
Syzran;53.17;48.48;Russia;EU;RUS
Kuznetsk;53.1204;46.6;Russia;EU;RUS
Gelendzhik;44.5748;38.0644;Russia;EU;RUS
Sharya;58.3798;45.5094;Russia;EU;RUS
Murmansk;68.97;33.1;Russia;EU;RUS
Isikul;54.9287;71.2682;Russia;EU;RUS
Frolovo;49.7722;43.6518;Russia;EU;RUS
Severomorsk;69.0731;33.4231;Russia;EU;RUS
Dzerzhinsk;56.2504;43.46;Russia;EU;RUS
Yalutorovsk;56.6736;66.2983;Russia;EU;RUS
Uryupinsk;50.7734;42.0031;Russia;EU;RUS
Golyshmanovo;56.3819;68.3715;Russia;EU;RUS
Nazyvayevsk;55.567;71.35;Russia;EU;RUS
Tatarsk;55.2219;75.9665;Russia;EU;RUS
Sarapul;56.4791;53.7987;Russia;EU;RUS
Tayshet;55.9277;97.9877;Russia;EU;RUS
Nevinnomyssk;44.6201;41.95;Russia;EU;RUS
Velikiye Luki;56.32;30.52;Russia;EU;RUS
Nizhnekamsk;55.6404;51.82;Russia;EU;RUS
Kirov;54.0852;34.3048;Russia;EU;RUS
Dyatkovo;53.5891;34.3392;Russia;EU;RUS
Tara;56.8982;74.3782;Russia;EU;RUS
Borisoglebsk;51.3687;42.0887;Russia;EU;RUS
Klintsy;52.7652;32.2448;Russia;EU;RUS
Mozhga;56.4548;52.1843;Russia;EU;RUS
Rzhev;56.2574;34.3275;Russia;EU;RUS
Naberezhnyye Chelny;55.7;52.3199;Russia;EU;RUS
Vichuga;57.2191;41.9287;Russia;EU;RUS
Mtsensk;53.2647;36.5472;Russia;EU;RUS
Kanash;55.5091;47.4687;Russia;EU;RUS
Topki;55.2802;85.6108;Russia;EU;RUS
Shuya;56.8543;41.3643;Russia;EU;RUS
Torzhok;57.0291;34.9787;Russia;EU;RUS
Biryusinsk;55.9607;97.8144;Russia;EU;RUS
Otradnyy;53.3778;51.3474;Russia;EU;RUS
Serpukhov;54.9304;37.43;Russia;EU;RUS
Balakovo;52.03;47.8;Russia;EU;RUS
Atkarsk;51.8765;44.9961;Russia;EU;RUS
Kirovo-Chepetsk;58.5544;50.0444;Russia;EU;RUS
Kirov;58.5901;49.67;Russia;EU;RUS
Serdobsk;52.4622;44.2218;Russia;EU;RUS
Aleksin;54.5143;37.0944;Russia;EU;RUS
Shumerlya;55.4848;46.4244;Russia;EU;RUS
Yefremov;53.1491;38.1215;Russia;EU;RUS
Buynaksk;42.8335;47.113;Russia;EU;RUS
Makhachkala;42.98;47.5;Russia;EU;RUS
Yaroslavl;57.62;39.87;Russia;EU;RUS
Sovetsk;57.5785;48.9581;Russia;EU;RUS
Salavat;53.3703;55.93;Russia;EU;RUS
Sterlitamak;53.63;55.96;Russia;EU;RUS
Bogoroditsk;53.7747;38.1144;Russia;EU;RUS
Morshansk;53.4547;41.8044;Russia;EU;RUS
Obninsk;55.0804;36.62;Russia;EU;RUS
Georgievsk;44.1599;43.4699;Russia;EU;RUS
Sol-lletsk;51.1603;54.9999;Russia;EU;RUS
Vladimir;56.13;40.4099;Russia;EU;RUS
Pechora;65.1587;57.2087;Russia;EU;RUS
Ulyanovsk;54.33;48.41;Russia;EU;RUS
Kirsanov;52.6574;42.7174;Russia;EU;RUS
Kotovsk;52.5947;41.5044;Russia;EU;RUS
Tambov;52.73;41.43;Russia;EU;RUS
Volkhov;59.9291;32.3387;Russia;EU;RUS
Vyshnniy Volochek;57.583;34.5631;Russia;EU;RUS
Orel;52.97;36.07;Russia;EU;RUS
Kandalaksha;67.1643;32.4144;Russia;EU;RUS
Ussuriysk;43.8;132.02;Russia;EU;RUS
Petrozavodsk;61.85;34.28;Russia;EU;RUS
Votkinsk;57.0304;53.99;Russia;EU;RUS
Omutninsk;58.6589;52.1592;Russia;EU;RUS
Novoaltaysk;53.3993;83.9588;Russia;EU;RUS
Ust' Ordynskiy;52.833;104.7;Russia;EU;RUS
Kirs;59.3138;52.2452;Russia;EU;RUS
Kondopoga;62.2087;34.2887;Russia;EU;RUS
Ruzayevka;54.0643;44.9244;Russia;EU;RUS
Tver;56.86;35.89;Russia;EU;RUS
Kotelnich;58.3041;48.3137;Russia;EU;RUS
Kaliningrad;54.7;20.4973;Russia;EU;RUS
Perm’;58.0174;56.2855;Russia;EU;RUS
Penza;53.18;45.0;Russia;EU;RUS
Velikiy Ustyug;60.7687;46.2987;Russia;EU;RUS
Aleysk;52.4918;82.7777;Russia;EU;RUS
Balakhna;56.4943;43.5944;Russia;EU;RUS
Podolsk;55.3804;37.5299;Russia;EU;RUS
Kineshma;57.47;42.13;Russia;EU;RUS
Yegoryevsk;55.3848;39.0294;Russia;EU;RUS
Volzhskiy;48.7948;44.7744;Russia;EU;RUS
Volgograd;48.71;44.5;Russia;EU;RUS
Onega;63.9271;38.0771;Russia;EU;RUS
Cherepanovo;54.2336;83.3688;Russia;EU;RUS
Apatity;67.5731;33.393;Russia;EU;RUS
Umba;66.6814;34.3455;Russia;EU;RUS
Kovda;66.6903;32.8702;Russia;EU;RUS
Kirovsk;67.6091;33.6687;Russia;EU;RUS
Iskitim;54.6509;83.2865;Russia;EU;RUS
Belgorod;50.63;36.5999;Russia;EU;RUS
Taganrog;47.23;38.92;Russia;EU;RUS
Velsk;61.0674;42.0974;Russia;EU;RUS
Sasovo;54.3491;41.9087;Russia;EU;RUS
Voronezh;51.73;39.27;Russia;EU;RUS
Syktyvkar;61.66;50.82;Russia;EU;RUS
Krasnoufimsk;56.5991;57.7586;Russia;EU;RUS
Lipetsk;52.62;39.64;Russia;EU;RUS
Yelets;52.58;38.5;Russia;EU;RUS
Ust Kut;56.765;105.76;Russia;EU;RUS
Magnitogorsk;53.4227;58.98;Russia;EU;RUS
Gryazi;52.4948;39.9343;Russia;EU;RUS
Kazan;55.7499;49.1263;Russia;EU;RUS
Arzamas;55.4;43.8;Russia;EU;RUS
Buy;58.4847;41.5244;Russia;EU;RUS
Kostroma;57.77;40.94;Russia;EU;RUS
Zelenodolsk;55.8406;48.655;Russia;EU;RUS
Nizhneudinsk;54.8977;99.0277;Russia;EU;RUS
Chistopol;55.3648;50.6407;Russia;EU;RUS
Perm;58.0;56.25;Russia;EU;RUS
Nizhny Tagil;57.92;59.975;Russia;EU;RUS
Kem;64.9536;34.5684;Russia;EU;RUS
Belomorsk;64.5252;34.7658;Russia;EU;RUS
Ob;54.998;82.7077;Russia;EU;RUS
Novosibirsk;55.03;82.96;Russia;EU;RUS
Cherkessk;44.2904;42.06;Russia;EU;RUS
Livny;52.4248;37.6044;Russia;EU;RUS
Sibay;52.7091;58.6387;Russia;EU;RUS
Kursk;51.74;36.19;Russia;EU;RUS
Verkhnyaya Salda;58.0502;60.5498;Russia;EU;RUS
Naryan Mar;67.6474;53.0574;Russia;EU;RUS
Kyshtym;55.7;60.5595;Russia;EU;RUS
Krasnouralsk;58.3515;60.0515;Russia;EU;RUS
Almetyevsk;54.9004;52.3199;Russia;EU;RUS
Archangel;64.575;40.545;Russia;EU;RUS
Verkhniy Ufaley;56.0663;60.2313;Russia;EU;RUS
Chusovoy;58.2934;57.813;Russia;EU;RUS
Nikel;69.4126;30.2188;Russia;EU;RUS
Zlatoust;55.175;59.65;Russia;EU;RUS
Nevyansk;57.4902;60.2148;Russia;EU;RUS
Sochi;43.59;39.73;Russia;EU;RUS
Novoshakhtinsk;47.77;39.92;Russia;EU;RUS
Bugrino;68.8079;49.3042;Russia;EU;RUS
Shakhty;47.7204;40.27;Russia;EU;RUS
Bataysk;47.1368;39.7449;Russia;EU;RUS
Astrakhan;46.3487;48.055;Russia;EU;RUS
Kotlas;61.2631;46.6631;Russia;EU;RUS
Indiga;67.6898;49.0166;Russia;EU;RUS
Severouralsk;60.1565;59.9615;Russia;EU;RUS
Akhtubinsk;48.2787;46.1687;Russia;EU;RUS
Shoyna;67.8666;44.1334;Russia;EU;RUS
Sosnogorsk;63.5948;53.8943;Russia;EU;RUS
Shebekino;50.4144;36.8944;Russia;EU;RUS
Ukhta;63.56;53.69;Russia;EU;RUS
Yemanzhelinsk;54.7489;61.2935;Russia;EU;RUS
Bakal;54.9459;58.7959;Russia;EU;RUS
Troitsk;54.1056;61.5702;Russia;EU;RUS
Yekaterinburg;56.85;60.6;Russia;EU;RUS
Segezha;63.7548;34.3243;Russia;EU;RUS
Kamensk Uralskiy;56.4205;61.935;Russia;EU;RUS
Karpinsk;59.7602;60.0098;Russia;EU;RUS
Usinsk;65.923;57.403;Russia;EU;RUS
Kudymkar;59.0162;54.633;Russia;EU;RUS
Vikhorevka;56.0931;101.2427;Russia;EU;RUS
Bratsk;56.157;101.615;Russia;EU;RUS
Glazov;58.1232;52.6288;Russia;EU;RUS
Solikamsk;59.67;56.75;Russia;EU;RUS
Severodvinsk;64.57;39.83;Russia;EU;RUS
Mednogorsk;51.4191;57.5787;Russia;EU;RUS
Gay;51.4747;58.4543;Russia;EU;RUS
Dombarovskiy;50.7546;59.54;Russia;EU;RUS
Kungur;57.4348;56.9543;Russia;EU;RUS
Gubakha;58.8691;57.5887;Russia;EU;RUS
Kurgan;55.46;65.345;Russia;EU;RUS
Ust-Ulimsk;57.99;102.6333;Russia;EU;RUS
Slobodskoy;58.7185;50.188;Russia;EU;RUS
Kizel;59.0644;57.6343;Russia;EU;RUS
Leninogorsk;54.5987;52.4487;Russia;EU;RUS
Rostov;47.2346;39.7127;Russia;EU;RUS
Orekhovo-Zuevo;55.82;38.98;Russia;EU;RUS
Buguruslan;53.663;52.433;Russia;EU;RUS
Turukhansk;65.8382;87.955;Russia;EU;RUS
Zmeinogorsk;51.1571;82.195;Russia;EU;RUS
Ulan Ude;51.825;107.625;Russia;EU;RUS
Teli;51.0333;90.2333;Russia;EU;RUS
Asino;56.9931;86.1627;Russia;EU;RUS
Vladivostok;43.13;131.91;Russia;EU;RUS
Shadrinsk;56.0837;63.6333;Russia;EU;RUS
Vorontsovo;71.6983;83.5642;Russia;EU;RUS
Kyzyl;51.7067;94.3831;Russia;EU;RUS
Tazovsky;67.4667;78.7;Russia;EU;RUS
Magas;43.1667;44.8;Russia;EU;RUS
Nazran;43.233;44.783;Russia;EU;RUS
Groznyy;43.3187;45.6987;Russia;EU;RUS
Krasnokamsk;58.0747;55.7443;Russia;EU;RUS
Asha;54.998;57.2726;Russia;EU;RUS
Berezniki;59.42;56.76;Russia;EU;RUS
Nelidovo;56.2235;32.7731;Russia;EU;RUS
Ivanovo;57.01;41.01;Russia;EU;RUS
Sergiyev Posad;56.33;38.17;Russia;EU;RUS
Tolyatti;53.4804;49.53;Russia;EU;RUS
Uelen;66.1541;-169.8106;Russia;EU;RUS
Skovorodino;53.9833;123.9167;Russia;EU;RUS
Kyakhta;50.3527;106.4527;Russia;EU;RUS
Zvezdnyy;70.9566;-179.59;Russia;EU;RUS
Dalnerechensk;45.9273;133.7223;Russia;EU;RUS
Bikin;46.8203;134.2649;Russia;EU;RUS
Magdagachi;53.45;125.8;Russia;EU;RUS
Shimanovsk;52.0024;127.6975;Russia;EU;RUS
Zeya;53.75;127.2666;Russia;EU;RUS
Neftekamsk;56.0835;54.2631;Russia;EU;RUS
Nordvik;74.0165;111.51;Russia;EU;RUS
Khatanga;72.0411;102.465;Russia;EU;RUS
Agapa;71.4504;89.25;Russia;EU;RUS
Yessey;68.4837;102.1666;Russia;EU;RUS
Nakhodka;42.8374;132.8874;Russia;EU;RUS
Partizansk;43.1349;133.1349;Russia;EU;RUS
Kodinskiy;58.6981;99.1777;Russia;EU;RUS
Khabarovsk;48.455;135.12;Russia;EU;RUS
Boyarka;70.767;97.5;Russia;EU;RUS
Savetskaya Gavan;48.9699;140.2749;Russia;EU;RUS
Uyar;55.8104;94.3153;Russia;EU;RUS
Bogotol;56.2165;89.5184;Russia;EU;RUS
Lesosibirsk;58.2433;92.4833;Russia;EU;RUS
Noginsk;64.4833;91.2333;Russia;EU;RUS
Artemovsk;54.3487;93.4355;Russia;EU;RUS
Podkamennaya;61.5995;90.1236;Russia;EU;RUS
Dikson;73.507;80.5451;Russia;EU;RUS
Igarka;67.4671;86.5833;Russia;EU;RUS
Komsa;61.868;89.2577;Russia;EU;RUS
Kansk;56.19;95.71;Russia;EU;RUS
Arsenyev;44.1623;133.2823;Russia;EU;RUS
Starorybnoye;72.7666;104.8;Russia;EU;RUS
Zaozernyy;55.962;94.7028;Russia;EU;RUS
Achinsk;56.27;90.5;Russia;EU;RUS
Omolon;65.25;160.5;Russia;EU;RUS
Pevek;69.7008;170.3133;Russia;EU;RUS
Mikhalkino;69.4244;161.4811;Russia;EU;RUS
Lesozavodsk;45.4748;133.4298;Russia;EU;RUS
Pokrovsk;61.4934;129.1272;Russia;EU;RUS
Olyokminsk;60.5032;120.3926;Russia;EU;RUS
Svobodnyy;51.4062;128.1312;Russia;EU;RUS
Omsukchan;62.5333;155.8;Russia;EU;RUS
Tynda;55.1743;124.7076;Russia;EU;RUS
Omchak;61.6333;147.9167;Russia;EU;RUS
Progress;49.7504;129.6167;Russia;EU;RUS
Belogorsk;50.9191;128.4637;Russia;EU;RUS
Susuman;62.7833;148.1668;Russia;EU;RUS
Amursk;50.2228;136.8974;Russia;EU;RUS
Kavalerovo;44.2702;135.0498;Russia;EU;RUS
Dalnegorsk;44.5372;135.5172;Russia;EU;RUS
Ishim;56.1502;69.4498;Russia;EU;RUS
Yakutsk;62.035;129.735;Russia;EU;RUS
Kamenna Obi;53.7936;81.3388;Russia;EU;RUS
Severobaykalsk;55.634;109.313;Russia;EU;RUS
Trofimovsk;72.5997;127.0337;Russia;EU;RUS
Novorossiysk;44.73;37.7699;Russia;EU;RUS
Inta;66.0374;60.1674;Russia;EU;RUS
Gyda;70.8814;78.4661;Russia;EU;RUS
Uray;60.1401;64.7548;Russia;EU;RUS
Tobolsk;58.1998;68.2648;Russia;EU;RUS
Suntar;62.1444;117.6319;Russia;EU;RUS
Vorkuta;67.5;64.01;Russia;EU;RUS
Uzhur;55.3292;89.8207;Russia;EU;RUS
Bilibino;68.0504;166.3333;Russia;EU;RUS
Tiksi;71.6269;128.835;Russia;EU;RUS
Beringovskiy;63.0655;179.3067;Russia;EU;RUS
Okha;53.5739;142.9479;Russia;EU;RUS
